"名称","名称カナ","住所","TEL","FAX","URL","備考","経度","緯度","分類"
"ライブタウン湘南野比自治会","ﾗｲﾌﾞﾀｳﾝｼﾖｳﾅﾝﾉﾋﾞｼﾞﾁｶｲ","","","","http://www.city.yokosuka.kanagawa.jp/2720/tyounaikai/1838.html","","139.690679786863","35.2164558785914","町内会・自治会マップ"
"森崎町内会","ﾓﾘｻｷﾁﾖｳﾅｲｶｲ","","","","http://www.city.yokosuka.kanagawa.jp/2720/tyounaikai/1413.html","","139.679906836781","35.247921129165","町内会・自治会マップ"
"西逸見第２町内会","ﾆｼﾍﾐﾀﾞｲ2ﾁﾖｳﾅｲｶｲ","","","","http://www.city.yokosuka.kanagawa.jp/2720/tyounaikai/1306.html","","139.640656065654","35.277899104938","町内会・自治会マップ"
"湘南鷹取六丁目自治会","ｼﾖｳﾅﾝﾀｶﾄﾘ6ﾁﾖｳﾒｼﾞﾁｶｲ","","","","http://www.city.yokosuka.kanagawa.jp/2720/tyounaikai/1128.html","","139.615011259785","35.3149926798578","町内会・自治会マップ"
"豊之坪町内会","ﾄﾖﾉﾂﾎﾞﾁﾖｳﾅｲｶｲ","","","","http://www.city.yokosuka.kanagawa.jp/2720/tyounaikai/1023.html","","139.666687031522","35.2700684403873","町内会・自治会マップ"
"田戸台町内会","ﾀﾄﾞﾀﾞｲﾁﾖｳﾅｲｶｲ","","","","http://www.city.yokosuka.kanagawa.jp/2720/tyounaikai/1027.html","","139.674013782516","35.2698299128948","町内会・自治会マップ"
"東長浦自治会","ﾋｶﾞｼﾅｶﾞｳﾗｼﾞﾁｶｲ","","","","http://www.city.yokosuka.kanagawa.jp/2720/tyounaikai/1215.html","","139.641085795875","35.2871522215556","町内会・自治会マップ"
"安針台自治会","ｱﾝｼﾞﾝﾀﾞｲｼﾞﾁｶｲ","","","","http://www.city.yokosuka.kanagawa.jp/2720/tyounaikai/1308.html","","139.64453758751","35.2859368363274","町内会・自治会マップ"
"安浦第２町会","ﾔｽｳﾗﾀﾞｲ2ﾁﾖｳｶｲ","","","","http://www.city.yokosuka.kanagawa.jp/2720/tyounaikai/1008.html","","139.677746854053","35.2722565923456","町内会・自治会マップ"
"長浜町内会","ﾅｶﾞﾊﾏﾁﾖｳﾅｲｶｲ","","","","http://www.city.yokosuka.kanagawa.jp/2720/tyounaikai/1927.html","","139.615464692554","35.1921998729841","町内会・自治会マップ"
"ザ・タワーハウス自治会","ｻﾞ.ﾀﾜ-ﾊｳｽｼﾞﾁｶｲ","","","","http://www.city.yokosuka.kanagawa.jp/2720/tyounaikai/1059.html","","139.678734233426","35.2727653978662","町内会・自治会マップ"
"リーデンス・コート自治会","ﾘ-ﾃﾞﾝｽｺ-ﾄｼﾞﾁｶｲ","","","","http://www.city.yokosuka.kanagawa.jp/2720/tyounaikai/1066.html","","139.67922840361","35.2723455560406","町内会・自治会マップ"
"三春町１丁目町内会","ﾐﾊﾙﾁﾖｳ1ﾁﾖｳﾒﾁﾖｳﾅｲｶｲ","","","","http://www.city.yokosuka.kanagawa.jp/2720/tyounaikai/1011.html","","139.682222212681","35.2687501920588","町内会・自治会マップ"
"湘南池上自治会","ｼﾖｳﾅﾝｲｹｶﾞﾐｼﾞﾁｶｲ","","","","http://www.city.yokosuka.kanagawa.jp/2720/tyounaikai/1432.html","","139.642697257751","35.2698921339241","町内会・自治会マップ"
"第一平作町内会","ﾀﾞｲ1ﾋﾗｻｸﾁﾖｳﾅｲｶｲ","","","","http://www.city.yokosuka.kanagawa.jp/2720/tyounaikai/1427.html","","139.64616381541","35.2576912204011","町内会・自治会マップ"
"衣笠町内会","ｷﾇｶﾞｻﾁﾖｳﾅｲｶｲ","","","","http://www.city.yokosuka.kanagawa.jp/2720/tyounaikai/1422.html","","139.654932733309","35.2425574081528","町内会・自治会マップ"
"岩戸２丁目町内会","ｲﾜﾄ2ﾁﾖｳﾒﾁﾖｳﾅｲｶｲ","","","","http://www.city.yokosuka.kanagawa.jp/2720/tyounaikai/1723.html","","139.677447025652","35.2309200107632","町内会・自治会マップ"
"粟田町内会","ｱﾜﾀﾁﾖｳﾅｲｶｲ","","","","http://www.city.yokosuka.kanagawa.jp/2720/tyounaikai/1812.html","","139.67984476482","35.2269948199385","町内会・自治会マップ"
"東逸見第４町内会","ﾋｶﾞｼﾍﾐﾀﾞｲ4ﾁﾖｳﾅｲｶｲ","","","","http://www.city.yokosuka.kanagawa.jp/2720/tyounaikai/1304.html","","139.647608248883","35.2742696755967","町内会・自治会マップ"
"富士見会","ﾌｼﾞﾐｶｲ","","","","http://www.city.yokosuka.kanagawa.jp/2720/tyounaikai/1028.html","","139.678427192878","35.266959932719","町内会・自治会マップ"
"浦賀団地自治会","ｳﾗｶﾞﾀﾞﾝﾁｼﾞﾁｶｲ","","","","http://www.city.yokosuka.kanagawa.jp/2720/tyounaikai/1621.html","","139.712767822076","35.2529016569462","町内会・自治会マップ"
"浦賀京浜町内会","ｳﾗｶﾞｹｲﾋﾝﾁﾖｳﾅｲｶｲ","","","","http://www.city.yokosuka.kanagawa.jp/2720/tyounaikai/1619.html","","139.712259889142","35.2548957650891","町内会・自治会マップ"
"船越町３丁目町内会","ﾌﾅｺｼﾁﾖｳ3ﾁﾖｳﾒﾁﾖｳﾅｲｶｲ","","","","http://www.city.yokosuka.kanagawa.jp/2720/tyounaikai/1203.html","","139.622522427836","35.2988433018307","町内会・自治会マップ"
"坂本町１丁目町内会","ｻｶﾓﾄﾁﾖｳ1ﾁﾖｳﾒﾁﾖｳﾅｲｶｲ","","","","http://www.city.yokosuka.kanagawa.jp/2720/tyounaikai/1048.html","","139.658444035441","35.2718517484739","町内会・自治会マップ"
"県営浦賀かもめ団地自治会","ｹﾝｴｲｳﾗｶﾞｶﾓﾒﾀﾞﾝﾁｼﾞﾁｶｲ","","","","http://www.city.yokosuka.kanagawa.jp/2720/tyounaikai/1628.html","","139.730550583545","35.2414957600145","町内会・自治会マップ"
"長瀬町内会","ﾅｶﾞｾﾁﾖｳﾅｲｶｲ","","","","http://www.city.yokosuka.kanagawa.jp/2720/tyounaikai/1713.html","","139.720435133179","35.2283551865388","町内会・自治会マップ"
"鴨居臨海自治会","ｶﾓｲﾘﾝｶｲｼﾞﾁｶｲ","","","","http://www.city.yokosuka.kanagawa.jp/2720/tyounaikai/1632.html","","139.729046651209","35.2454784013318","町内会・自治会マップ"
"久里浜町内会","ｸﾘﾊﾏﾁﾖｳﾅｲｶｲ","","","","http://www.city.yokosuka.kanagawa.jp/2720/tyounaikai/1705.html","","139.716991215818","35.2194369998886","町内会・自治会マップ"
"船越町２丁目町内会","ﾌﾅｺｼﾁﾖｳ2ﾁﾖｳﾒﾁﾖｳﾅｲｶｲ","","","","http://www.city.yokosuka.kanagawa.jp/2720/tyounaikai/1202.html","","139.623909468841","35.2972770428556","町内会・自治会マップ"
"根岸町４丁目町内会","ﾈｷﾞｼﾁﾖｳ4ﾁﾖｳﾒﾁﾖｳﾅｲｶｲ","","","","http://www.city.yokosuka.kanagawa.jp/2720/tyounaikai/1515.html","","139.679985740475","35.2540073380345","町内会・自治会マップ"
"馬堀町３・４丁目町内会","ﾏﾎﾞﾘﾁﾖｳ3.4ﾁﾖｳﾒﾁﾖｳﾅｲｶｲ","","","","http://www.city.yokosuka.kanagawa.jp/2720/tyounaikai/1509.html","","139.711465133429","35.2586089264244","町内会・自治会マップ"
"屋形町内会","ﾔｶﾀﾁﾖｳﾅｲｶｲ","","","","","","139.612729514368","35.2042501811498","町内会・自治会マップ"
"荒巻町内会","ｱﾗﾏｷﾁﾖｳﾅｲｶｲ","","","","http://www.city.yokosuka.kanagawa.jp/2720/tyounaikai/1602.html","","139.710014094831","35.2465147485703","町内会・自治会マップ"
"洲崎町内会","ｽｻﾞｷﾁﾖｳﾅｲｶｲ","","","","http://www.city.yokosuka.kanagawa.jp/2720/tyounaikai/1616.html","","139.72189987732","35.2424765162548","町内会・自治会マップ"
"逸見が丘町内会","ﾍﾐｶﾞｵｶﾁﾖｳﾅｲｶｲ","","","","http://www.city.yokosuka.kanagawa.jp/2720/tyounaikai/1309.html","","139.649400190073","35.2718097718592","町内会・自治会マップ"
"馬堀海岸４丁目自治会","ﾏﾎﾞﾘｶｲｶﾞﾝ4ﾁﾖｳﾒｼﾞﾁｶｲ","","","","http://www.city.yokosuka.kanagawa.jp/2720/tyounaikai/1522.html","","139.713684117388","35.2619366332922","町内会・自治会マップ"
"東浦賀和光台自治会","ﾋｶﾞｼｳﾗｶﾞﾜｺｳﾀﾞｲｼﾞﾁｶｲ","","","","","","139.724729404299","35.2434186527951","町内会・自治会マップ"
"不入斗町内会","ｲﾘﾔﾏｽﾞﾁﾖｳﾅｲｶｲ","","","","http://www.city.yokosuka.kanagawa.jp/2720/tyounaikai/1035.html","","139.662021220159","35.2688512698022","町内会・自治会マップ"
"脇方町内会","ﾜｷｶﾀﾁﾖｳﾅｲｶｲ","","","","http://www.city.yokosuka.kanagawa.jp/2720/tyounaikai/1630.html","","139.726514785827","35.2428298938718","町内会・自治会マップ"
"上町池の端町内会","ｳﾜﾏﾁｲｹﾉﾊﾀﾁﾖｳﾅｲｶｲ","","","","http://www.city.yokosuka.kanagawa.jp/2720/tyounaikai/1021.html","","139.670351393278","35.2702217284458","町内会・自治会マップ"
"大矢部町内会","ｵｵﾔﾍﾞﾁﾖｳﾅｲｶｲ","","","","http://www.city.yokosuka.kanagawa.jp/2720/tyounaikai/1420.html","","139.668715983884","35.2377575955807","町内会・自治会マップ"
"安浦３丁目町内会","ﾔｽｳﾗ3ﾁﾖｳﾒﾁﾖｳﾅｲｶｲ","","","","http://www.city.yokosuka.kanagawa.jp/2720/tyounaikai/1009.html","","139.679621661756","35.2700076307996","町内会・自治会マップ"
"入町内会","ｲﾘﾁﾖｳﾅｲｶｲ","","","","http://www.city.yokosuka.kanagawa.jp/2720/tyounaikai/1820.html","","139.668526821792","35.2177560627484","町内会・自治会マップ"
"長沢平田自治会","ﾅｶﾞｻﾜﾋﾗﾀｼﾞﾁｶｲ","","","","http://www.city.yokosuka.kanagawa.jp/2720/tyounaikai/1822.html","","139.679406495614","35.2098491701996","町内会・自治会マップ"
"内川町内会","ｳﾁｶﾜﾁｮｳﾅｲｶｲ","","","","http://www.city.yokosuka.kanagawa.jp/2720/tyounaikai/1703.html","","139.698436099352","35.2353010310781","町内会・自治会マップ"
"日の出町会","ﾋﾉﾃﾞﾁﾖｳｶｲ","","","","http://www.city.yokosuka.kanagawa.jp/2720/tyounaikai/1006.html","","139.676982029064","35.2776996339292","町内会・自治会マップ"
"坂本町三丁目町会","ｻｶﾓﾄﾁﾖｳｻﾝﾁﾖｳﾒﾁﾖｳｶｲ","","","","http://www.city.yokosuka.kanagawa.jp/2720/tyounaikai/1050.html","","139.654140692522","35.2686956986187","町内会・自治会マップ"
"太田和上の里町内会","ｵｵﾀﾜｶﾐﾉｻﾄﾁﾖｳﾅｲｶｲ","","","","http://www.city.yokosuka.kanagawa.jp/2720/tyounaikai/1942.html","","139.647756433951","35.2365487508002","町内会・自治会マップ"
"湘南たけやま町内会","ｼﾖｳﾅﾝﾀｹﾔﾏﾁﾖｳﾅｲｶｲ","","","","","","139.646117034387","35.227540940146","町内会・自治会マップ"
"三春町６丁目町内会","ﾐﾊﾙﾁﾖｳ6ﾁﾖｳﾒﾁﾖｳﾅｲｶｲ","","","","http://www.city.yokosuka.kanagawa.jp/2720/tyounaikai/1013.html","","139.681020147874","35.2640863530417","町内会・自治会マップ"
"東佐野町会","ﾋｶﾞｼｻﾉﾁﾖｳｶｲ","","","","http://www.city.yokosuka.kanagawa.jp/2720/tyounaikai/1031.html","","139.672560115469","35.2658528687073","町内会・自治会マップ"
"光風台町内会","ｺｳﾌｳﾀﾞｲﾁﾖｳﾅｲｶｲ","","","","http://www.city.yokosuka.kanagawa.jp/2720/tyounaikai/1610.html","","139.711054026454","35.2387527011148","町内会・自治会マップ"
"高坂町内会","ｺｳｻｶﾁﾖｳﾅｲｶｲ","","","","http://www.city.yokosuka.kanagawa.jp/2720/tyounaikai/1611.html","","139.711536739962","35.2394818992943","町内会・自治会マップ"
"久里浜台自治会","ｸﾘﾊﾏﾀﾞｲｼﾞﾁｶｲ","","","","http://www.city.yokosuka.kanagawa.jp/2720/tyounaikai/1707.html","","139.714313886496","35.2346724763476","町内会・自治会マップ"
"佐原町内会","ｻﾊﾗﾁﾖｳﾅｲｶｲ","","","","http://www.city.yokosuka.kanagawa.jp/2720/tyounaikai/1712.html","","139.686006396797","35.2382365005903","町内会・自治会マップ"
"野比団地野ばら町内会","ﾉﾋﾞﾀﾞﾝﾁﾉﾊﾞﾗﾁﾖｳﾅｲｶｲ","","","","http://www.city.yokosuka.kanagawa.jp/2720/tyounaikai/1806.html","","139.68403802414","35.2159713880285","町内会・自治会マップ"
"花輪町内会","ﾊﾅﾜﾁﾖｳﾅｲｶｲ","","","","http://www.city.yokosuka.kanagawa.jp/2720/tyounaikai/1808.html","","139.690121605782","35.2154218272439","町内会・自治会マップ"
"芦名町内会","ｱｼﾅﾁｮｳﾅｲｶｲ","","","","http://www.city.yokosuka.kanagawa.jp/2720/tyounaikai/1918.html","","139.618403483562","35.242113448896","町内会・自治会マップ"
"東ノ入自治会","ﾋｶﾞｼﾉｲﾘｼﾞﾁｶｲ","","","","http://www.city.yokosuka.kanagawa.jp/2720/tyounaikai/1841.html","","139.696549428276","35.2141585270215","町内会・自治会マップ"
"久留和町内会","ｸﾙﾜﾁﾖｳﾅｲｶｲ","","","","http://www.city.yokosuka.kanagawa.jp/2720/tyounaikai/1916.html","","139.592332615012","35.2505214558864","町内会・自治会マップ"
"秋谷町内会","ｱｷﾔﾁﾖｳﾅｲｶｲ","","","","http://www.city.yokosuka.kanagawa.jp/2720/tyounaikai/1917.html","","139.60920189043","35.2430362040837","町内会・自治会マップ"
"豊島町内会","ﾄｼﾏﾁﾖｳﾅｲｶｲ","","","","http://www.city.yokosuka.kanagawa.jp/2720/tyounaikai/1020.html","","139.669214708458","35.2709426851461","町内会・自治会マップ"
"田戸親睦会","ﾀﾄﾞｼﾝﾎﾞｸｶｲ","","","","http://www.city.yokosuka.kanagawa.jp/2720/tyounaikai/1010.html","","139.676513312827","35.2712136157055","町内会・自治会マップ"
"岩戸町内会","ｲﾜﾄﾁﾖｳﾅｲｶｲ","","","","http://www.city.yokosuka.kanagawa.jp/2720/tyounaikai/1710.html","","139.680846129098","35.2317451284764","町内会・自治会マップ"
"佐島なぎさの丘自治会","ｻｼﾞﾏﾅｷﾞｻﾉｵｶｼﾞﾁｶｲ","","","","http://www.city.yokosuka.kanagawa.jp/2720/tyounaikai/1951.html","","139.614461616156","35.2277773481083","町内会・自治会マップ"
"佐島町内会","ｻｼﾞﾏﾁﾖｳﾅｲｶｲ","","","","http://www.city.yokosuka.kanagawa.jp/2720/tyounaikai/1919.html","","139.611395793767","35.2253556752677","町内会・自治会マップ"
"台町内会","ﾀﾞｲﾁﾖｳﾅｲｶｲ","","","","http://www.city.yokosuka.kanagawa.jp/2720/tyounaikai/1819.html","","139.680432520293","35.2113790813138","町内会・自治会マップ"
"峯町内会","ﾐﾈﾁﾖｳﾅｲｶｲ","","","","http://www.city.yokosuka.kanagawa.jp/2720/tyounaikai/1818.html","","139.67836388421","35.2173947252407","町内会・自治会マップ"
"林町内会","ﾊﾔｼﾁﾖｳﾅｲｶｲ","","","","http://www.city.yokosuka.kanagawa.jp/2720/tyounaikai/1911.html","","139.636554880824","35.2147112822804","町内会・自治会マップ"
"坂本町６丁目町内会","ｻｶﾓﾄﾁﾖｳ6ﾁﾖｳﾒﾁﾖｳﾅｲｶｲ","","","","http://www.city.yokosuka.kanagawa.jp/2720/tyounaikai/1054.html","","139.649867979573","35.2696806660188","町内会・自治会マップ"
"長岡町内会","ﾅｶﾞｵｶﾁﾖｳﾅｲｶｲ","","","","http://www.city.yokosuka.kanagawa.jp/2720/tyounaikai/1846.html","","139.679939858691","35.2065178573746","町内会・自治会マップ"
"神金町内会","ｶﾘｶﾞﾈﾁﾖｳﾅｲｶｲ","","","","http://www.city.yokosuka.kanagawa.jp/2720/tyounaikai/1409.html","","139.679021397247","35.2623304219833","町内会・自治会マップ"
"根岸町５丁目町内会","ﾈｷﾞｼﾁﾖｳ5ﾁﾖｳﾒﾁﾖｳﾅｲｶｲ","","","","http://www.city.yokosuka.kanagawa.jp/2720/tyounaikai/1516.html","","139.682375731008","35.2557562268145","町内会・自治会マップ"
"公郷台自治会","ｸｺﾞｳﾀﾞｲｼﾞﾁｶｲ","","","","http://www.city.yokosuka.kanagawa.jp/2720/tyounaikai/1411.html","","139.676912766786","35.2600975789855","町内会・自治会マップ"
"森崎団地自治会","ﾓﾘｻｷﾀﾞﾝﾁｼﾞﾁｶｲ","","","","http://www.city.yokosuka.kanagawa.jp/2720/tyounaikai/1414.html","","139.673356010251","35.2458442199808","町内会・自治会マップ"
"浦賀丘住宅地自治会","ｳﾗｶﾞｵｶｼﾞﾕｳﾀｸﾁｼﾞﾁｶｲ","","","","http://www.city.yokosuka.kanagawa.jp/2720/tyounaikai/1640.html","","139.710829045809","35.2433623089516","町内会・自治会マップ"
"池上町会","ｲｹｶﾞﾐﾁﾖｳｶｲ","","","","http://www.city.yokosuka.kanagawa.jp/2720/tyounaikai/1403.html","","139.643979339253","35.2649831296171","町内会・自治会マップ"
"田浦町６丁目自治会","ﾀｳﾗﾁﾖｳ6ﾁﾖｳﾒｼﾞﾁｶｲ","","","","http://www.city.yokosuka.kanagawa.jp/2720/tyounaikai/1213.html","","139.628261466068","35.2957080335844","町内会・自治会マップ"
"湘南港が丘自治会","ｼﾖｳﾅﾝﾐﾅﾄｶﾞｵｶｼﾞﾁｶｲ","","","","http://www.city.yokosuka.kanagawa.jp/2720/tyounaikai/1218.html","","139.626186543028","35.2966327811072","町内会・自治会マップ"
"武町内会","ﾀｹﾁﾖｳﾅｲｶｲ","","","","http://www.city.yokosuka.kanagawa.jp/2720/tyounaikai/1902.html","","139.651269129267","35.2257983385701","町内会・自治会マップ"
"吉井町内会","ﾖｼｲﾁﾖｳﾅｲｶｲ","","","","http://www.city.yokosuka.kanagawa.jp/2720/tyounaikai/1639.html","","139.700652582566","35.24311204072","町内会・自治会マップ"
"湘南鷹取４丁目自治会","ｼﾖｳﾅﾝﾀｶﾄﾘ4ﾁﾖｳﾒｼﾞﾁｶｲ","","","","http://www.city.yokosuka.kanagawa.jp/2720/tyounaikai/1126.html","","139.614581192164","35.3091695190391","町内会・自治会マップ"
"芝生町内会","ｼﾎﾞｳﾁﾖｳﾅｲｶｲ","","","","http://www.city.yokosuka.kanagawa.jp/2720/tyounaikai/1601.html","","139.71038436961","35.2525299963509","町内会・自治会マップ"
"湘南鷹取５丁目自治会","ｼﾖｳﾅﾝﾀｶﾄﾘ5ﾁﾖｳﾒｼﾞﾁｶｲ","","","","http://www.city.yokosuka.kanagawa.jp/2720/tyounaikai/1127.html","","139.614679821479","35.3128254040989","町内会・自治会マップ"
"浦賀丘３丁目自治会","ｳﾗｶﾞｵｶ3ﾁﾖｳﾒｼﾞﾁｶｲ","","","","http://www.city.yokosuka.kanagawa.jp/2720/tyounaikai/1641.html","","139.715866121306","35.2428056387843","町内会・自治会マップ"
"浦賀７丁目町内会","ｳﾗｶﾞ7ﾁﾖｳﾒﾁﾖｳﾅｲｶｲ","","","","http://www.city.yokosuka.kanagawa.jp/2720/tyounaikai/1603.html","","139.71561075807","35.2436552959015","町内会・自治会マップ"
"宮下町内会","ﾐﾔｼﾀﾁﾖｳﾅｲｶｲ","","","","http://www.city.yokosuka.kanagawa.jp/2720/tyounaikai/1605.html","","139.718322338287","35.2420351852129","町内会・自治会マップ"
"須軽谷町内会","ｽｶﾞﾙﾔﾁﾖｳﾅｲｶｲ","","","","http://www.city.yokosuka.kanagawa.jp/2720/tyounaikai/1914.html","","139.648866201566","35.2122598934064","町内会・自治会マップ"
"長坂町内会","ﾅｶﾞｻｶﾁﾖｳﾅｲｶｲ","","","","http://www.city.yokosuka.kanagawa.jp/2720/tyounaikai/1920.html","","139.631619707036","35.234622580717","町内会・自治会マップ"
"神金町内会","ｶﾘｶﾞﾈﾁﾖｳﾅｲｶｲ","","","","http://www.city.yokosuka.kanagawa.jp/2720/tyounaikai/1409.html","","139.677863714849","35.2575234578933","町内会・自治会マップ"
"坂本５丁目町会","ｻｶﾓﾄ5ﾁﾖｳﾒﾁﾖｳｶｲ","","","","http://www.city.yokosuka.kanagawa.jp/2720/tyounaikai/1053.html","","139.651011194574","35.2683532126145","町内会・自治会マップ"
"平作町内会","ﾋﾗｻｸﾁﾖｳﾅｲｶｲ","","","","http://www.city.yokosuka.kanagawa.jp/2720/tyounaikai/1426.html","","139.647293819325","35.253860753217","町内会・自治会マップ"
"岡崎町内会","ｵｶｻﾞｷﾁﾖｳﾅｲｶｲ","","","","http://www.city.yokosuka.kanagawa.jp/2720/tyounaikai/1930.html","","139.612644334461","35.2086917094036","町内会・自治会マップ"
"仮屋ヶ崎町内会","ｶﾘﾔｶﾞｻｷﾁﾖｳﾅｲｶｲ","","","","http://www.city.yokosuka.kanagawa.jp/2720/tyounaikai/1929.html","","139.614492058926","35.2075658097449","町内会・自治会マップ"
"吉倉町内会","ﾖｼｸﾗﾁﾖｳﾅｲｶｲ","","","","http://www.city.yokosuka.kanagawa.jp/2720/tyounaikai/1307.html","","139.646707116754","35.2853889317127","町内会・自治会マップ"
"大作町内会","ｵｵｻｸﾁﾖｳﾅｲｶｲ","","","","http://www.city.yokosuka.kanagawa.jp/2720/tyounaikai/1807.html","","139.687790499273","35.2175811263937","町内会・自治会マップ"
"東町内会","ﾋｶﾞｼﾁﾖｳﾅｲｶｲ","","","","http://www.city.yokosuka.kanagawa.jp/2720/tyounaikai/1932.html","","139.611983938314","35.2064476293516","町内会・自治会マップ"
"松ヶ崎町内会","ﾏﾂｶﾞｻｷﾁﾖｳﾅｲｶｲ","","","","http://www.city.yokosuka.kanagawa.jp/2720/tyounaikai/1931.html","","139.610481664682","35.2085463603609","町内会・自治会マップ"
"新宿町内会","ｼﾝｼﾞﾕｸﾁﾖｳﾅｲｶｲ","","","","","","139.606004034917","35.2031217517604","町内会・自治会マップ"
"番場町内会","ﾊﾞﾝﾊﾞﾁﾖｳﾅｲｶｲ","","","","http://www.city.yokosuka.kanagawa.jp/2720/tyounaikai/1934.html","","139.607377998971","35.2052308448247","町内会・自治会マップ"
"漆山町内会","ｳﾙｼﾔﾏﾁﾖｳﾅｲｶｲ","","","","","","139.608583719748","35.198493790688","町内会・自治会マップ"
"荒井町内会","ｱﾗｲﾁﾖｳﾅｲｶｲ","","","","http://www.city.yokosuka.kanagawa.jp/2720/tyounaikai/1937.html","","139.604456385493","35.1963040029115","町内会・自治会マップ"
"長井市営アパート自治会","ﾅｶﾞｲｼｴｲｱﾊﾟ-ﾄｼﾞﾁｶｲ","","","","http://www.city.yokosuka.kanagawa.jp/2720/tyounaikai/1938.html","","139.614749520171","35.2066357420681","町内会・自治会マップ"
"富浦公園パークホームズ自治会","ﾄﾐｳﾗｺｳｴﾝﾊﾟ-ｸﾎ-ﾑｽﾞｼﾞﾁｶｲ","","","","","","139.617395210247","35.2052933337823","町内会・自治会マップ"
"大久保町内会","ｵｵｸﾎﾞﾁﾖｳﾅｲｶｲ","","","","http://www.city.yokosuka.kanagawa.jp/2720/tyounaikai/1926.html","","139.618631747144","35.1988972593691","町内会・自治会マップ"
"小根岸町内会","ｺﾈｷﾞｼﾁﾖｳﾅｲｶｲ","","","","http://www.city.yokosuka.kanagawa.jp/2720/tyounaikai/1924.html","","139.627118929216","35.2025967146753","町内会・自治会マップ"
"大木根町内会","ｵｵｷﾈﾁﾖｳﾅｲｶｲ","","","","http://www.city.yokosuka.kanagawa.jp/2720/tyounaikai/1925.html","","139.627041056295","35.2067453844637","町内会・自治会マップ"
"御幸浜町内会","ﾐﾕｷﾊﾏﾁﾖｳﾅｲｶｲ","","","","http://www.city.yokosuka.kanagawa.jp/2720/tyounaikai/1915.html","","139.627280679087","35.2085178772597","町内会・自治会マップ"
"井尻町内会","ｲｼﾞﾘﾁﾖｳﾅｲｶｲ","","","","http://www.city.yokosuka.kanagawa.jp/2720/tyounaikai/1928.html","","139.620020687954","35.2060770873895","町内会・自治会マップ"
"古屋敷町内会","ｺﾔｼｷﾁﾖｳﾅｲｶｲ","","","","http://www.city.yokosuka.kanagawa.jp/2720/tyounaikai/1833.html","","139.664451764589","35.1974433918532","町内会・自治会マップ"
"高田町内会","ﾀｶﾀﾁﾖｳﾅｲｶｲ","","","","","","139.661324520852","35.2047714692458","町内会・自治会マップ"
"グリーンハイツ自治会","ｸﾞﾘ-ﾝﾊｲﾂｼﾞﾁｶｲ","","","","http://www.city.yokosuka.kanagawa.jp/2720/tyounaikai/1835.html","","139.671440027193","35.203353420008","町内会・自治会マップ"
"県営津久井浜団地自治会","ｹﾝｴｲﾂｸｲﾊﾏﾀﾞﾝﾁｼﾞﾁｶｲ","","","","http://www.city.yokosuka.kanagawa.jp/2720/tyounaikai/1834.html","","139.669703952166","35.1995192291403","町内会・自治会マップ"
"クリオ湘南長沢参番館自治会","ｸﾘｵｼﾖｳﾅﾝﾅｶﾞｻﾜｻﾝﾊﾞﾝｶﾝｼﾞﾁｶｲ","","","","http://www.city.yokosuka.kanagawa.jp/2720/tyounaikai/1844.html","","139.672462037723","35.201620225081","町内会・自治会マップ"
"大町谷町内会","ｵｵﾏﾁﾔﾁﾖｳﾅｲｶｲ","","","","http://www.city.yokosuka.kanagawa.jp/2720/tyounaikai/1823.html","","139.66330123124","35.1952890215332","町内会・自治会マップ"
"仲町谷町内会","ﾅｶﾏﾁﾔﾁﾖｳﾅｲｶｲ","","","","http://www.city.yokosuka.kanagawa.jp/2720/tyounaikai/1824.html","","139.665750361905","35.1963099993875","町内会・自治会マップ"
"谷戸町内会","ﾔﾄﾁﾖｳﾅｲｶｲ","","","","http://www.city.yokosuka.kanagawa.jp/2720/tyounaikai/1831.html","","139.663965391735","35.2056438407681","町内会・自治会マップ"
"グリーンハイツ自治会","ｸﾞﾘ-ﾝﾊｲﾂｼﾞﾁｶｲ","","","","http://www.city.yokosuka.kanagawa.jp/2720/tyounaikai/1835.html","","139.667327593717","35.2081484345386","町内会・自治会マップ"
"境町内会","ｻｶｲﾁﾖｳﾅｲｶｲ","","","","http://www.city.yokosuka.kanagawa.jp/2720/tyounaikai/1814.html","","139.672765449409","35.2009841588885","町内会・自治会マップ"
"グリーンハイツ自治会","ｸﾞﾘ-ﾝﾊｲﾂｼﾞﾁｶｲ","","","","http://www.city.yokosuka.kanagawa.jp/2720/tyounaikai/1835.html","","139.667768448114","35.2088071345218","町内会・自治会マップ"
"安戸町内会","ﾔｽﾄﾞﾁﾖｳﾅｲｶｲ","","","","http://www.city.yokosuka.kanagawa.jp/2720/tyounaikai/1827.html","","139.669129509684","35.2035720433444","町内会・自治会マップ"
"グリーンハイツ自治会","ｸﾞﾘ-ﾝﾊｲﾂｼﾞﾁｶｲ","","","","http://www.city.yokosuka.kanagawa.jp/2720/tyounaikai/1835.html","","139.676087395257","35.2052632941906","町内会・自治会マップ"
"下田町内会","ｼﾀﾀﾞﾁﾖｳﾅｲｶｲ","","","","http://www.city.yokosuka.kanagawa.jp/2720/tyounaikai/1828.html","","139.664209455991","35.2019373763586","町内会・自治会マップ"
"町谷原町内会","ﾏﾁﾔﾊﾗﾁﾖｳﾅｲｶｲ","","","","http://www.city.yokosuka.kanagawa.jp/2720/tyounaikai/1829.html","","139.661793531718","35.1978125959082","町内会・自治会マップ"
"川尻町内会","ｶﾜｼﾘﾁﾖｳﾅｲｶｲ","","","","http://www.city.yokosuka.kanagawa.jp/2720/tyounaikai/1826.html","","139.668429862393","35.1987806952107","町内会・自治会マップ"
"仲小路町内会","ﾅｶｼﾖｳｼﾞﾁﾖｳﾅｲｶｲ","","","","http://www.city.yokosuka.kanagawa.jp/2720/tyounaikai/1825.html","","139.666330207315","35.198358690866","町内会・自治会マップ"
"宮の下町内会","ﾐﾔﾉｼﾀﾁﾖｳﾅｲｶｲ","","","","http://www.city.yokosuka.kanagawa.jp/2720/tyounaikai/1813.html","","139.67445476804","35.2026748442662","町内会・自治会マップ"
"グリーンハイツ自治会","ｸﾞﾘ-ﾝﾊｲﾂｼﾞﾁｶｲ","","","","http://www.city.yokosuka.kanagawa.jp/2720/tyounaikai/1835.html","","139.671689715447","35.2057104748856","町内会・自治会マップ"
"七軒町町内会","ｼﾁｹﾝﾁﾖｳﾁﾖｳﾅｲｶｲ","","","","http://www.city.yokosuka.kanagawa.jp/2720/tyounaikai/1815.html","","139.674874399848","35.2058827370224","町内会・自治会マップ"
"境町内会","ｻｶｲﾁﾖｳﾅｲｶｲ","","","","http://www.city.yokosuka.kanagawa.jp/2720/tyounaikai/1814.html","","139.672820429206","35.2050333363821","町内会・自治会マップ"
"牛込町内会","ｳｼｺﾞﾒﾁﾖｳﾅｲｶｲ","","","","http://www.city.yokosuka.kanagawa.jp/2720/tyounaikai/1832.html","","139.659648986716","35.2098705981995","町内会・自治会マップ"
"湘南長沢セレノステージ自治会","ｼｮｳﾅﾝﾅｶﾞｻﾜｾﾚﾉｽﾃｰｼﾞｼﾞﾁｶｲ","","","","","","139.671127279011","35.2025632025094","町内会・自治会マップ"
"グレイスヒル湘南野比自治会","ｸﾞﾚｲｽﾋﾙｼﾖｳﾅﾝﾉﾋﾞｼﾞﾁｶｲ","","","","http://www.city.yokosuka.kanagawa.jp/2720/tyounaikai/1843.html","","139.683517639944","35.2092150853504","町内会・自治会マップ"
"チュリスガーデン湘南野比自治会","ﾁﾕﾘｽｶﾞ-ﾃﾞﾝｼﾖｳﾅﾝﾉﾋﾞｼﾞﾁｶｲ","","","","http://www.city.yokosuka.kanagawa.jp/2720/tyounaikai/1840.html","","139.691646051745","35.2137204253156","町内会・自治会マップ"
"中村町内会","ﾅｶﾑﾗﾁﾖｳﾅｲｶｲ","","","","http://www.city.yokosuka.kanagawa.jp/2720/tyounaikai/1845.html","","139.689924239548","35.211394545874","町内会・自治会マップ"
"志も町内会","ｼﾓﾁﾖｳﾅｲｶｲ","","","","http://www.city.yokosuka.kanagawa.jp/2720/tyounaikai/1801.html","","139.685364320674","35.2097321488954","町内会・自治会マップ"
"野比海岸町内会","ﾉﾋﾞｶｲｶﾞﾝﾁﾖｳﾅｲｶｲ","","","","http://www.city.yokosuka.kanagawa.jp/2720/tyounaikai/1810.html","","139.703648227216","35.2122073280313","町内会・自治会マップ"
"中村町内会","ﾅｶﾑﾗﾁﾖｳﾅｲｶｲ","","","","http://www.city.yokosuka.kanagawa.jp/2720/tyounaikai/1845.html","","139.693266239296","35.2115616683482","町内会・自治会マップ"
"中村町内会","ﾅｶﾑﾗﾁﾖｳﾅｲｶｲ","","","","http://www.city.yokosuka.kanagawa.jp/2720/tyounaikai/1845.html","","139.69341818582","35.2110253972807","町内会・自治会マップ"
"中村町内会","ﾅｶﾑﾗﾁﾖｳﾅｲｶｲ","","","","http://www.city.yokosuka.kanagawa.jp/2720/tyounaikai/1845.html","","139.69337805311","35.2104740293807","町内会・自治会マップ"
"野比京浜団地町内会","ﾉﾋﾞｹｲﾋﾝﾀﾞﾝﾁﾁﾖｳﾅｲｶｲ","","","","http://www.city.yokosuka.kanagawa.jp/2720/tyounaikai/1805.html","","139.685913444396","35.2127843490075","町内会・自治会マップ"
"野比緑町内会","ﾉﾋﾞﾐﾄﾞﾘﾁﾖｳﾅｲｶｲ","","","","http://www.city.yokosuka.kanagawa.jp/2720/tyounaikai/1804.html","","139.684995386757","35.2132551749575","町内会・自治会マップ"
"日生団地自治会","ﾆﾂｾｲﾀﾞﾝﾁｼﾞﾁｶｲ","","","","http://www.city.yokosuka.kanagawa.jp/2720/tyounaikai/1821.html","","139.681538824452","35.2128519102141","町内会・自治会マップ"
"野比東町内会","ﾉﾋﾞﾋｶﾞｼﾁﾖｳﾅｲｶｲ","","","","http://www.city.yokosuka.kanagawa.jp/2720/tyounaikai/1809.html","","139.694083783499","35.2122181264235","町内会・自治会マップ"
"県営みどりハイツ荻野自治会","ｹﾝｴｲﾐﾄﾞﾘﾊｲﾂｵｷﾞﾉｼﾞﾁｶｲ","","","","","","139.632283174049","35.2270160292048","町内会・自治会マップ"
"長坂市営住宅自治会","ﾅｶﾞｻｶｼｴｲｼﾞﾕｳﾀｸｼﾞﾁｶｲ","","","","http://www.city.yokosuka.kanagawa.jp/2720/tyounaikai/1922.html","","139.622479642956","35.2280597125332","町内会・自治会マップ"
"武山住宅町内会","ﾀｹﾔﾏｼﾞﾕｳﾀｸﾁﾖｳﾅｲｶｲ","","","","","","139.641751976242","35.2168011343782","町内会・自治会マップ"
"武官舎町内会","ﾀｹｶﾝｼﾔﾁﾖｳﾅｲｶｲ","","","","","","139.64389030741","35.2183430713485","町内会・自治会マップ"
"湘南たけやまシーサイド町内会","ｼﾖｳﾅﾝﾀｹﾔﾏｼ-ｻｲﾄﾞﾁﾖｳﾅｲｶｲ","","","","http://www.city.yokosuka.kanagawa.jp/2720/tyounaikai/1946.html","","139.636277753737","35.2213857909504","町内会・自治会マップ"
"太田和中町内会","ｵｵﾀﾜﾅｶﾁﾖｳﾅｲｶｲ","","","","http://www.city.yokosuka.kanagawa.jp/2720/tyounaikai/1943.html","","139.637006658624","35.2277541734431","町内会・自治会マップ"
"小田和町内会","ｺﾀﾜﾁﾖｳﾅｲｶｲ","","","","http://www.city.yokosuka.kanagawa.jp/2720/tyounaikai/1944.html","","139.633627088072","35.2223648059069","町内会・自治会マップ"
"竹川自治会","ﾀｹｶﾞﾜｼﾞﾁｶｲ","","","","http://www.city.yokosuka.kanagawa.jp/2720/tyounaikai/1941.html","","139.643591903298","35.2251621754109","町内会・自治会マップ"
"武いこいの会","ﾀｹｲｺｲﾉｶｲ","","","","http://www.city.yokosuka.kanagawa.jp/2720/tyounaikai/1903.html","","139.642287036193","35.2258708145712","町内会・自治会マップ"
"一騎塚町内会","ｲﾂｷﾂﾞｶﾁﾖｳﾅｲｶｲ","","","","http://www.city.yokosuka.kanagawa.jp/2720/tyounaikai/1907.html","","139.640315121953","35.2226130741925","町内会・自治会マップ"
"湘南くすの木台自治会","ｼﾖｳﾅﾝｸｽﾉｷﾀﾞｲｼﾞﾁｶｲ","","","","http://www.city.yokosuka.kanagawa.jp/2720/tyounaikai/1923.html","","139.626849708112","35.2273001125408","町内会・自治会マップ"
"岩戸四丁目町内会","ｲﾜﾄ4ﾁﾖｳﾒﾁﾖｳﾅｲｶｲ","","","","http://www.city.yokosuka.kanagawa.jp/2720/tyounaikai/1727.html","","139.669325275473","35.2314956866566","町内会・自治会マップ"
"岩戸５丁目町内会","ｲﾜﾄ5ﾁﾖｳﾒﾁﾖｳﾅｲｶｲ","","","","http://www.city.yokosuka.kanagawa.jp/2720/tyounaikai/1729.html","","139.667690388683","35.2301074590002","町内会・自治会マップ"
"南武自治会","ﾐﾅﾐﾀｹｼﾞﾁｶｲ","","","","http://www.city.yokosuka.kanagawa.jp/2720/tyounaikai/1905.html","","139.651620466552","35.2271228608551","町内会・自治会マップ"
"武ハイム第２自治会","ﾀｹﾊｲﾑﾀﾞｲ2ｼﾞﾁｶｲ","","","","http://www.city.yokosuka.kanagawa.jp/2720/tyounaikai/1940.html","","139.652673431988","35.2280476053631","町内会・自治会マップ"
"武ハイム自治会","ﾀｹﾊｲﾑｼﾞﾁｶｲ","","","","","","139.65221148921","35.2281639224765","町内会・自治会マップ"
"山科台自治会","ﾔﾏｼﾅﾀﾞｲｼﾞﾁｶｲ","","","","http://www.city.yokosuka.kanagawa.jp/2720/tyounaikai/1948.html","","139.655845741354","35.2361999604537","町内会・自治会マップ"
"岩戸３丁目町内会","ｲﾜﾄ3ﾁﾖｳﾒﾁﾖｳﾅｲｶｲ","","","","http://www.city.yokosuka.kanagawa.jp/2720/tyounaikai/1724.html","","139.673535373848","35.2291829377658","町内会・自治会マップ"
"新岩戸Ｃ地区町内会","ｼﾝｲﾜﾄCﾁｸﾁﾖｳﾅｲｶｲ","","","","http://www.city.yokosuka.kanagawa.jp/2720/tyounaikai/1725.html","","139.670777516877","35.2296125577418","町内会・自治会マップ"
"湘南たけやま町内会","ｼﾖｳﾅﾝﾀｹﾔﾏﾁﾖｳﾅｲｶｲ","","","","","","139.650288131031","35.229757732858","町内会・自治会マップ"
"みどり野自治会","ﾐﾄﾞﾘﾉｼﾞﾁｶｲ","","","","http://www.city.yokosuka.kanagawa.jp/2720/tyounaikai/1434.html","","139.676121400326","35.2369944827696","町内会・自治会マップ"
"大矢部４丁目町内会","ｵｵﾔﾍﾞ4ﾁﾖｳﾒﾁﾖｳﾅｲｶｲ","","","","http://www.city.yokosuka.kanagawa.jp/2720/tyounaikai/1421.html","","139.670652483112","35.236008902798","町内会・自治会マップ"
"岩戸中央町内会","ｲﾜﾄﾁﾕｳｵｳﾁﾖｳﾅｲｶｲ","","","","http://www.city.yokosuka.kanagawa.jp/2720/tyounaikai/1726.html","","139.671992695809","35.2328160704817","町内会・自治会マップ"
"ラブリハイツ湘南野比自治会","ﾗﾌﾞﾘﾊｲﾂｼﾖｳﾅﾝﾉﾋﾞｼﾞﾁｶｲ","","","","http://www.city.yokosuka.kanagawa.jp/2720/tyounaikai/1839.html","","139.682379348787","35.2178612830934","町内会・自治会マップ"
"クリオ久里浜自治会","ｸﾘｵｸﾘﾊﾏｼﾞﾁｶｲ","","","","http://www.city.yokosuka.kanagawa.jp/2720/tyounaikai/1730.html","","139.69020855796","35.2384184090492","町内会・自治会マップ"
"佐原コスモ自治会","ｻﾊﾗｺｽﾓｼﾞﾁｶｲ","","","","","","139.681564866326","35.2386133634156","町内会・自治会マップ"
"ハイランド４丁目自治会","ﾊｲﾗﾝﾄﾞ4ﾁﾖｳﾒｼﾞﾁｶｲ","","","","http://www.city.yokosuka.kanagawa.jp/2720/tyounaikai/1718.html","","139.691501232804","35.2254621776992","町内会・自治会マップ"
"ハイランド５丁目自治会","ﾊｲﾗﾝﾄﾞ5ﾁﾖｳﾒｼﾞﾁｶｲ","","","","http://www.city.yokosuka.kanagawa.jp/2720/tyounaikai/1719.html","","139.694902990338","35.2230790749116","町内会・自治会マップ"
"ハイランド１丁目自治会","ﾊｲﾗﾝﾄﾞ1ﾁﾖｳﾒｼﾞﾁｶｲ","","","","http://www.city.yokosuka.kanagawa.jp/2720/tyounaikai/1715.html","","139.690922266683","35.2208971273107","町内会・自治会マップ"
"八幡町内会","ﾔﾊﾀﾁﾖｳﾅｲｶｲ","","","","http://www.city.yokosuka.kanagawa.jp/2720/tyounaikai/1702.html","","139.697247741776","35.2222626036179","町内会・自治会マップ"
"ライフステージ久里浜自治会","ﾗｲﾌｽﾃ-ｼﾞｸﾘﾊﾏｼﾞﾁｶｲ","","","","http://www.city.yokosuka.kanagawa.jp/2720/tyounaikai/1732.html","","139.70983363301","35.2370557196712","町内会・自治会マップ"
"久里浜６丁目町内会","ｸﾘﾊﾏ6ﾁﾖｳﾒﾁﾖｳﾅｲｶｲ","","","","http://www.city.yokosuka.kanagawa.jp/2720/tyounaikai/1704.html","","139.708007602685","35.2273151091578","町内会・自治会マップ"
"久里浜６丁目改良住宅５番自治会","ｸﾘﾊﾏ6ﾁﾖｳﾒｶｲﾘﾖｳｼﾞﾕｳﾀｸ5ﾊﾞﾝｼﾞﾁｶｲ","","","","http://www.city.yokosuka.kanagawa.jp/2720/tyounaikai/1731.html","","139.708608869703","35.22823714923","町内会・自治会マップ"
"ハイランド３丁目自治会","ﾊｲﾗﾝﾄﾞ3ﾁﾖｳﾒｼﾞﾁｶｲ","","","","http://www.city.yokosuka.kanagawa.jp/2720/tyounaikai/1717.html","","139.684940631765","35.226998300733","町内会・自治会マップ"
"久比里町内会","ｸﾋﾞﾘﾁﾖｳﾅｲｶｲ","","","","http://www.city.yokosuka.kanagawa.jp/2720/tyounaikai/1706.html","","139.706767951529","35.234455162711","町内会・自治会マップ"
"若宮台町内会","ﾜｶﾐﾔﾀﾞｲﾁﾖｳﾅｲｶｲ","","","","http://www.city.yokosuka.kanagawa.jp/2720/tyounaikai/1708.html","","139.705770197086","35.2368088194193","町内会・自治会マップ"
"ガーデンライフ久里浜自治会","ｶﾞ-ﾃﾞﾝﾗｲﾌｸﾘﾊﾏｼﾞﾁｶｲ","","","","http://www.city.yokosuka.kanagawa.jp/2720/tyounaikai/1720.html","","139.690592983361","35.2380630514482","町内会・自治会マップ"
"コーエイマンション久里浜自治会","ｺ-ｴｲﾏﾝｼﾖﾝｸﾘﾊﾏｼﾞﾁｶｲ","","","","http://www.city.yokosuka.kanagawa.jp/2720/tyounaikai/1714.html","","139.702161786747","35.2346555620563","町内会・自治会マップ"
"久村町内会","ｸﾑﾗﾁﾖｳﾅｲｶｲ","","","","http://www.city.yokosuka.kanagawa.jp/2720/tyounaikai/1709.html","","139.694167710307","35.2300835787446","町内会・自治会マップ"
"八幡町内会","ﾔﾊﾀﾁﾖｳﾅｲｶｲ","","","","http://www.city.yokosuka.kanagawa.jp/2720/tyounaikai/1702.html","","139.698970034608","35.2286158643021","町内会・自治会マップ"
"ハイランド二丁目自治会","ﾊｲﾗﾝﾄﾞ2ﾁﾖｳﾒｼﾞﾁｶｲ","","","","http://www.city.yokosuka.kanagawa.jp/2720/tyounaikai/1716.html","","139.686179414507","35.2217198093275","町内会・自治会マップ"
"ヴェラシス浦賀２番館自治会","ｳﾞｴﾗｼｽｳﾗｶﾞ2ﾊﾞﾝｶﾝｼﾞﾁｶｲ","","","","http://www.city.yokosuka.kanagawa.jp/2720/tyounaikai/1651.html","","139.722601110539","35.2367837802474","町内会・自治会マップ"
"ヴェラシスオーシャンコミュニティ自治会","ｳﾞｴﾗｼｽｵ－ｼﾔﾝｺﾐﾕﾆﾃｲｼﾞﾁｶｲ","","","","http://www.city.yokosuka.kanagawa.jp/2720/tyounaikai/1650.html","","139.722829028198","35.2359436620328","町内会・自治会マップ"
"南浦賀自治会","ﾐﾅﾐｳﾗｶﾞｼﾞﾁｶｲ","","","","http://www.city.yokosuka.kanagawa.jp/2720/tyounaikai/1609.html","","139.714565085935","35.2379900294589","町内会・自治会マップ"
"マリンコーポ浦賀自治会","ﾏﾘﾝｺ-ﾎﾟｳﾗｶﾞｼﾞﾁｶｲ","","","","http://www.city.yokosuka.kanagawa.jp/2720/tyounaikai/1643.html","","139.727024753498","35.2424315486072","町内会・自治会マップ"
"ラブリハイツ久里浜自治会","ﾗﾌﾞﾘﾊｲﾂｸﾘﾊﾏｼﾞﾁｶｲ","","","","http://www.city.yokosuka.kanagawa.jp/2720/tyounaikai/1721.html","","139.715079122268","35.2188153056853","町内会・自治会マップ"
"新井町内会","ｱﾗｲﾁﾖｳﾅｲｶｲ","","","","http://www.city.yokosuka.kanagawa.jp/2720/tyounaikai/1615.html","","139.723676578481","35.2415039425773","町内会・自治会マップ"
"ヴェラシス浦賀１番館自治会","ｳﾞｴﾗｼｽｳﾗｶﾞｲﾁﾊﾞﾝｶﾝｼﾞﾁｶｲ","","","","http://www.city.yokosuka.kanagawa.jp/2720/tyounaikai/1652.html","","139.722315539331","35.2374569479268","町内会・自治会マップ"
"オーシャンパーク浦賀自治会","ｵ-ｼﾔﾝﾊﾟ-ｸｳﾗｶﾞｼﾞﾁｶｲ","","","","http://www.city.yokosuka.kanagawa.jp/2720/tyounaikai/1653.html","","139.725786989191","35.2412918489626","町内会・自治会マップ"
"浜町町内会","ﾊﾏﾁﾖｳﾁﾖｳﾅｲｶｲ","","","","http://www.city.yokosuka.kanagawa.jp/2720/tyounaikai/1612.html","","139.721440746091","35.2372331271335","町内会・自治会マップ"
"蛇畠町内会","ｼﾞﾔﾊﾞﾀｹﾁﾖｳﾅｲｶｲ","","","","","","139.720353160699","35.2393527291265","町内会・自治会マップ"
"川間町内会","ｶﾜﾏﾁﾖｳﾅｲｶｲ","","","","http://www.city.yokosuka.kanagawa.jp/2720/tyounaikai/1613.html","","139.722036210903","35.2327028599241","町内会・自治会マップ"
"柳町町内会","ﾔﾅｷﾞﾁﾖｳﾁﾖｳﾅｲｶｲ","","","","http://www.city.yokosuka.kanagawa.jp/2720/tyounaikai/1607.html","","139.71651488176","35.238178613747","町内会・自治会マップ"
"田中町内会","ﾀﾅｶﾁﾖｳﾅｲｶｲ","","","","http://www.city.yokosuka.kanagawa.jp/2720/tyounaikai/1608.html","","139.716814641997","35.2406680807391","町内会・自治会マップ"
"紺屋町町内会","ｺﾝﾔﾁｮｳﾁｮｳﾅｲｶｲ","","","","http://www.city.yokosuka.kanagawa.jp/2720/tyounaikai/1606.html","","139.719138190927","35.2409751683229","町内会・自治会マップ"
"湘南国際村自治会","ｼﾖｳﾅﾝｺｸｻｲﾑﾗｼﾞﾁｶｲ","","","","http://www.city.yokosuka.kanagawa.jp/2720/tyounaikai/1949.html","","139.608452379206","35.254596306525","町内会・自治会マップ"
"城山自治会","ｼﾛﾔﾏｼﾞﾁｶｲ","","","","http://www.city.yokosuka.kanagawa.jp/2720/tyounaikai/1402.html","","139.641364182539","35.2574576981563","町内会・自治会マップ"
"阿部倉町内会","ｱﾍﾞｸﾗﾁﾖｳﾅｲｶｲ","","","","http://www.city.yokosuka.kanagawa.jp/2720/tyounaikai/1401.html","","139.635193366026","35.2567279915176","町内会・自治会マップ"
"新公郷自治会","ｼﾝｸｺﾞｳｼﾞﾁｶｲ","","","","http://www.city.yokosuka.kanagawa.jp/2720/tyounaikai/1410.html","","139.675877896654","35.2613520544855","町内会・自治会マップ"
"アルカーデン衣笠自治会","ｱﾙｶ-ﾃﾞﾝｷﾇｶﾞｻｼﾞﾁｶｲ","","","","http://www.city.yokosuka.kanagawa.jp/2720/tyounaikai/1431.html","","139.662277087989","35.2595210380234","町内会・自治会マップ"
"森崎わかば自治会","ﾓﾘｻｷﾜｶﾊﾞｼﾞﾁｶｲ","","","","http://www.city.yokosuka.kanagawa.jp/2720/tyounaikai/1416.html","","139.669532199808","35.2449752909155","町内会・自治会マップ"
"ライフアソート横須賀サンサタウン自治会","ﾗｲﾌｱｿ-ﾄﾖｺｽｶｻﾝｻﾀｳﾝｼﾞﾁｶｲ","","","","http://www.city.yokosuka.kanagawa.jp/2720/tyounaikai/1433.html","","139.676836647421","35.2449181099485","町内会・自治会マップ"
"さつき自治会","ｻﾂｷｼﾞﾁｶｲ","","","","http://www.city.yokosuka.kanagawa.jp/2720/tyounaikai/1415.html","","139.676846573588","35.2469356693042","町内会・自治会マップ"
"衣笠団地自治会","ｷﾇｶﾞｻﾀﾞﾝﾁｼﾞﾁｶｲ","","","","http://www.city.yokosuka.kanagawa.jp/2720/tyounaikai/1419.html","","139.674607626797","35.2494341478976","町内会・自治会マップ"
"コモンシティ湘南衣笠町内会","ｺﾓﾝｼﾃｲｼﾖｳﾅﾝｷﾇｶﾞｻﾁﾖｳﾅｲｶｲ","","","","http://www.city.yokosuka.kanagawa.jp/2720/tyounaikai/1429.html","","139.653738594081","35.263923435173","町内会・自治会マップ"
"第２平作町内会","ﾀﾞｲ2ﾋﾗｻｸﾁﾖｳﾅｲｶｲ","","","","http://www.city.yokosuka.kanagawa.jp/2720/tyounaikai/1428.html","","139.650483279162","35.2610596851507","町内会・自治会マップ"
"第一衣笠町内会","ﾀﾞｲ1ｷﾇｶﾞｻﾁﾖｳﾅｲｶｲ","","","","http://www.city.yokosuka.kanagawa.jp/2720/tyounaikai/1425.html","","139.661950772211","35.2528375727241","町内会・自治会マップ"
"本公郷町内会","ﾓﾄｸｺﾞｳﾁﾖｳﾅｲｶｲ","","","","http://www.city.yokosuka.kanagawa.jp/2720/tyounaikai/1408.html","","139.671532775699","35.2560884607729","町内会・自治会マップ"
"神金町内会","ｶﾘｶﾞﾈﾁﾖｳﾅｲｶｲ","","","","http://www.city.yokosuka.kanagawa.jp/2720/tyounaikai/1409.html","","139.676143757089","35.2612196515101","町内会・自治会マップ"
"三洋台町内会","ｻﾝﾖｳﾀﾞｲﾁﾖｳﾅｲｶｲ","","","","http://www.city.yokosuka.kanagawa.jp/2720/tyounaikai/1030.html","","139.672280266838","35.2614826573223","町内会・自治会マップ"
"平和台自治会","ﾍｲﾜﾀﾞｲｼﾞﾁｶｲ","","","","http://www.city.yokosuka.kanagawa.jp/2720/tyounaikai/1039.html","","139.660343167093","35.2648375972456","町内会・自治会マップ"
"大明寺県営アパート自治会","ﾀﾞｲﾐﾖｳｼﾞｹﾝｴｲｱﾊﾟ-ﾄｼﾞﾁｶｲ","","","","http://www.city.yokosuka.kanagawa.jp/2720/tyounaikai/1036.html","","139.659858944353","35.2626265941992","町内会・自治会マップ"
"南佐野町内会","ﾐﾅﾐｻﾉﾁﾖｳﾅｲｶｲ","","","","http://www.city.yokosuka.kanagawa.jp/2720/tyounaikai/1034.html","","139.668386696009","35.2606434347158","町内会・自治会マップ"
"市営公郷アパート自治会","ｼｴｲｸｺﾞｳｱﾊﾟ-ﾄｼﾞﾁｶｲ","","","","http://www.city.yokosuka.kanagawa.jp/2720/tyounaikai/1412.html","","139.67375293383","35.2564777455362","町内会・自治会マップ"
"鶴が丘町内会","ﾂﾙｶﾞｵｶﾁﾖｳﾅｲｶｲ","","","","http://www.city.yokosuka.kanagawa.jp/2720/tyounaikai/1038.html","","139.658961393386","35.2659940215819","町内会・自治会マップ"
"柏木田町内会","ｶｼﾜｷﾞﾀﾞﾁﾖｳﾅｲｶｲ","","","","http://www.city.yokosuka.kanagawa.jp/2720/tyounaikai/1032.html","","139.669624051564","35.2677751622351","町内会・自治会マップ"
"松栄台自治会","ｼﾖｳｴｲﾀﾞｲｼﾞﾁｶｲ","","","","http://www.city.yokosuka.kanagawa.jp/2720/tyounaikai/1406.html","","139.656707469932","35.2639600279639","町内会・自治会マップ"
"汐見台町内会","ｼｵﾐﾀﾞｲﾁﾖｳﾅｲｶｲ","","","","http://www.city.yokosuka.kanagawa.jp/2720/tyounaikai/1037.html","","139.661387437069","35.2639640196338","町内会・自治会マップ"
"坂本台団地自治会","ｻｶﾓﾄﾀﾞｲﾀﾞﾝﾁｼﾞﾁｶｲ","","","","http://www.city.yokosuka.kanagawa.jp/2720/tyounaikai/1051.html","","139.655489524138","35.2672270198337","町内会・自治会マップ"
"グレーシアパーク彩の丘自治会","ｸﾞﾚ-ｼｱﾊﾟ-ｸｱﾔﾉｵｶｼﾞﾁｶｲ","","","","http://www.city.yokosuka.kanagawa.jp/2720/tyounaikai/1430.html","","139.655217478706","35.26546909977","町内会・自治会マップ"
"光栄町内会","ｺｳｴｲﾁﾖｳﾅｲｶｲ","","","","http://www.city.yokosuka.kanagawa.jp/2720/tyounaikai/1029.html","","139.676465737802","35.265312198109","町内会・自治会マップ"
"西佐野町内会","ﾆｼｻﾉﾁﾖｳﾅｲｶｲ","","","","http://www.city.yokosuka.kanagawa.jp/2720/tyounaikai/1033.html","","139.667525733442","35.2650424984162","町内会・自治会マップ"
"金栄町内会","ｷﾝｴｲﾁﾖｳﾅｲｶｲ","","","","http://www.city.yokosuka.kanagawa.jp/2720/tyounaikai/1405.html","","139.657654127734","35.2620261921027","町内会・自治会マップ"
"望洋台町内会","ﾎﾞｳﾖｳﾀﾞｲﾁﾖｳﾅｲｶｲ","","","","http://www.city.yokosuka.kanagawa.jp/2720/tyounaikai/1040.html","","139.663596289165","35.260999814527","町内会・自治会マップ"
"城址が丘町内会","ｼﾞﾖｳｼｶﾞｵｶﾁﾖｳﾅｲｶｲ","","","","http://www.city.yokosuka.kanagawa.jp/2720/tyounaikai/1418.html","","139.670993141435","35.2485774411683","町内会・自治会マップ"
"森崎４丁目町内会","ﾓﾘｻｷﾖﾝﾁﾖｳﾒﾁﾖｳﾅｲｶｲ","","","","http://www.city.yokosuka.kanagawa.jp/2720/tyounaikai/1417.html","","139.673214583721","35.2472558275633","町内会・自治会マップ"
"森崎リアンシティ自治会","ﾓﾘｻｷﾘｱﾝｼﾃｨｼﾞﾁｶｲ","","","","","","139.6687702488","35.2462746102149","町内会・自治会マップ"
"衣笠栄町町内会","ｷﾇｶﾞｻｻｶｴﾁﾖｳﾁﾖｳﾅｲｶｲ","","","","http://www.city.yokosuka.kanagawa.jp/2720/tyounaikai/1407.html","","139.663004038227","35.2580698375443","町内会・自治会マップ"
"小矢部町内会","ｺﾔﾍﾞﾁﾖｳﾅｲｶｲ","","","","http://www.city.yokosuka.kanagawa.jp/2720/tyounaikai/1423.html","","139.669706537012","35.2515283965166","町内会・自治会マップ"
"小矢部南町内会","ｺﾔﾍﾞﾐﾅﾐﾁﾖｳﾅｲｶｲ","","","","http://www.city.yokosuka.kanagawa.jp/2720/tyounaikai/1424.html","","139.666091140976","35.2468553262661","町内会・自治会マップ"
"金谷町内会","ｶﾈﾔﾁﾖｳﾅｲｶｲ","","","","http://www.city.yokosuka.kanagawa.jp/2720/tyounaikai/1404.html","","139.651139821203","35.2639360646014","町内会・自治会マップ"
"アイビーヒルズ自治会","ｱｲﾋﾞ-ﾋﾙｽﾞｼﾞﾁｶｲ","","","","http://www.city.yokosuka.kanagawa.jp/2720/tyounaikai/1649.html","","139.699750352825","35.2468818134309","町内会・自治会マップ"
"馬堀台団地自治会","ﾏﾎﾞﾘﾀﾞｲﾀﾞﾝﾁｼﾞﾁｶｲ","","","","http://www.city.yokosuka.kanagawa.jp/2720/tyounaikai/1526.html","","139.705893919917","35.2550372221755","町内会・自治会マップ"
"馬堀海岸３丁目自治会","ﾏﾎﾞﾘｶｲｶﾞﾝ3ﾁﾖｳﾒｼﾞﾁｶｲ","","","","http://www.city.yokosuka.kanagawa.jp/2720/tyounaikai/1521.html","","139.709998514029","35.261849640965","町内会・自治会マップ"
"馬堀海岸２丁目自治会","ﾏﾎﾞﾘｶｲｶﾞﾝ2ﾁﾖｳﾒｼﾞﾁｶｲ","","","","http://www.city.yokosuka.kanagawa.jp/2720/tyounaikai/1520.html","","139.705316143491","35.2619811481636","町内会・自治会マップ"
"シーハイツ１丁目町内会","ｼ-ﾊｲﾂ1ﾁﾖｳﾒﾁﾖｳﾅｲｶｲ","","","","http://www.city.yokosuka.kanagawa.jp/2720/tyounaikai/1519.html","","139.700301667781","35.2629442444932","町内会・自治会マップ"
"大津シーハイツ自治会","ｵｵﾂｼ-ﾊｲﾂｼﾞﾁｶｲ","","","","http://www.city.yokosuka.kanagawa.jp/2720/tyounaikai/1518.html","","139.69591045663","35.2631708032505","町内会・自治会マップ"
"大津町１丁目町内会","ｵｵﾂﾁﾖｳｲﾂﾁﾖｳﾒﾁﾖｳﾅｲｶｲ","","","","http://www.city.yokosuka.kanagawa.jp/2720/tyounaikai/1501.html","","139.694312296809","35.2623612605986","町内会・自治会マップ"
"大津町２丁目町内会","ｵｵﾂﾁﾖｳ2ﾁﾖｳﾒﾁﾖｳﾅｲｶｲ","","","","http://www.city.yokosuka.kanagawa.jp/2720/tyounaikai/1502.html","","139.698327308119","35.2598862097299","町内会・自治会マップ"
"湘南山手桜木坂自治会","ｼﾖｳﾅﾝﾔﾏﾃｻｸﾗｷﾞｻﾞｶｼﾞﾁｶｲ","","","","","","139.695908437717","35.2462016088327","町内会・自治会マップ"
"池田団地自治会","ｲｹﾀﾞﾀﾞﾝﾁｼﾞﾁｶｲ","","","","http://www.city.yokosuka.kanagawa.jp/2720/tyounaikai/1511.html","","139.690738562497","35.2487678597795","町内会・自治会マップ"
"池田四季の街自治会","ｲｹﾀﾞ ｼｷﾉﾏﾁｼﾞﾁｶｲ","","","","http://www.city.yokosuka.kanagawa.jp/2720/tyounaikai/1529.html","","139.693268810766","35.2533202830891","町内会・自治会マップ"
"根岸ＣＭＫ自治会","ﾈｷﾞｼｼ-ｴﾑｹｲｼﾞﾁｶｲ","","","","http://www.city.yokosuka.kanagawa.jp/2720/tyounaikai/1517.html","","139.685025111261","35.2525026515439","町内会・自治会マップ"
"根岸町３丁目町内会","ﾈｷﾞｼﾁﾖｳ3ﾁﾖｳﾒﾁﾖｳﾅｲｶｲ","","","","http://www.city.yokosuka.kanagawa.jp/2720/tyounaikai/1514.html","","139.6837196128","35.2503249556214","町内会・自治会マップ"
"コーポ湘南大津自治会","ｺ-ﾎﾟｼﾖｳﾅﾝｵｵﾂｼﾞﾁｶｲ","","","","http://www.city.yokosuka.kanagawa.jp/2720/tyounaikai/1506.html","","139.690702740098","35.2612792516973","町内会・自治会マップ"
"湘南山手吉井自治会","ｼﾖｳﾅﾝﾔﾏﾃﾖｼｲｼﾞﾁｶｲ","","","","http://www.city.yokosuka.kanagawa.jp/2720/tyounaikai/1648.html","","139.702373610819","35.2505689189355","町内会・自治会マップ"
"三春町４丁目町内会","ﾐﾊﾙﾁﾖｳ4ﾁﾖｳﾒﾁﾖｳﾅｲｶｲ","","","","http://www.city.yokosuka.kanagawa.jp/2720/tyounaikai/1015.html","","139.691133903564","35.2640275152546","町内会・自治会マップ"
"桜が丘１丁目自治会","ｻｸﾗｶﾞｵｶ1ﾁﾖｳﾒｼﾞﾁｶｲ","","","","http://www.city.yokosuka.kanagawa.jp/2720/tyounaikai/1523.html","","139.700887569181","35.2555776615095","町内会・自治会マップ"
"大津町４丁目町内会","ｵｵﾂﾁﾖｳ4ﾁﾖｳﾒﾁﾖｳﾅｲｶｲ","","","","http://www.city.yokosuka.kanagawa.jp/2720/tyounaikai/1504.html","","139.691406178501","35.2574625804151","町内会・自治会マップ"
"三春町二丁目町内会","ﾐﾊﾙﾁﾖｳ2ﾁﾖｳﾒﾁﾖｳﾅｲｶｲ","","","","http://www.city.yokosuka.kanagawa.jp/2720/tyounaikai/1012.html","","139.685289400062","35.2662885181738","町内会・自治会マップ"
"金堀自治会","ｶﾅﾎﾞﾘｼﾞﾁｶｲ","","","","","","139.684376914624","35.2588983878428","町内会・自治会マップ"
"パルテール湘南くりはま自治会","ﾊﾟﾙﾃ-ﾙｼﾖｳﾅﾝｸﾘﾊﾏｼﾞﾁｶｲ","","","","http://www.city.yokosuka.kanagawa.jp/2720/tyounaikai/1530.html","","139.689708930835","35.2452292965896","町内会・自治会マップ"
"大津町３丁目町内会","ｵｵﾂﾁﾖｳ3ﾁﾖｳﾒﾁﾖｳﾅｲｶｲ","","","","http://www.city.yokosuka.kanagawa.jp/2720/tyounaikai/1503.html","","139.69448253556","35.2594797555084","町内会・自治会マップ"
"湘南大津の丘自治会","ｼﾖｳﾅﾝｵｵﾂﾉｵｶｼﾞﾁｶｲ","","","","http://www.city.yokosuka.kanagawa.jp/2720/tyounaikai/1532.html","","139.695996684015","35.2566360314754","町内会・自治会マップ"
"三春町３丁目町内会","ﾐﾊﾙﾁﾖｳ3ﾁﾖｳﾒﾁﾖｳﾅｲｶｲ","","","","http://www.city.yokosuka.kanagawa.jp/2720/tyounaikai/1014.html","","139.687662278231","35.2649701294979","町内会・自治会マップ"
"馬堀町一丁目町内会","ﾏﾎﾞﾘﾁﾖｳ1ﾁﾖｳﾒﾁﾖｳﾅｲｶｲ","","","","http://www.city.yokosuka.kanagawa.jp/2720/tyounaikai/1507.html","","139.699859334983","35.2579909143464","町内会・自治会マップ"
"桜が丘２丁目自治会","ｻｸﾗｶﾞｵｶ2ﾁﾖｳﾒｼﾞﾁｶｲ","","","","http://www.city.yokosuka.kanagawa.jp/2720/tyounaikai/1524.html","","139.706420881303","35.2549860159436","町内会・自治会マップ"
"根岸町２丁目町内会","ﾈｷﾞｼﾁﾖｳ2ﾁﾖｳﾒﾁﾖｳﾅｲｶｲ","","","","http://www.city.yokosuka.kanagawa.jp/2720/tyounaikai/1513.html","","139.689132496581","35.25160373185","町内会・自治会マップ"
"根岸町１丁目町内会","ﾈｷﾞｼﾁﾖｳ1ﾁﾖｳﾒﾁﾖｳﾅｲｶｲ","","","","http://www.city.yokosuka.kanagawa.jp/2720/tyounaikai/1512.html","","139.687305689091","35.2535294834652","町内会・自治会マップ"
"池田町内会","ｲｹﾀﾞﾁﾖｳﾅｲｶｲ","","","","http://www.city.yokosuka.kanagawa.jp/2720/tyounaikai/1510.html","","139.69257401191","35.2497534314731","町内会・自治会マップ"
"湘南山手池田町内会","ｼﾖｳﾅﾝﾔﾏﾃｲｹﾀﾞﾁﾖｳﾅｲｶｲ","","","","http://www.city.yokosuka.kanagawa.jp/2720/tyounaikai/1531.html","","139.695680056654","35.249188573338","町内会・自治会マップ"
"桜が丘東映団地自治会","ｻｸﾗｶﾞｵｶﾄｳｴｲﾀﾞﾝﾁｼﾞﾁｶｲ","","","","https://www.city.yokosuka.kanagawa.jp/2720/tyounaikai/1525.html","","139.705752804523","35.257020355074","町内会・自治会マップ"
"矢之津町内会","ﾔﾉﾂﾁﾖｳﾅｲｶｲ","","","","http://www.city.yokosuka.kanagawa.jp/2720/tyounaikai/1508.html","","139.705743960037","35.2579810587774","町内会・自治会マップ"
"大津町５丁目町内会","ｵｵﾂﾁﾖｳ5ﾁﾖｳﾒﾁﾖｳﾅｲｶｲ","","","","http://www.city.yokosuka.kanagawa.jp/2720/tyounaikai/1505.html","","139.687202542358","35.2590065366376","町内会・自治会マップ"
"三春町５丁目町内会","ﾐﾊﾙﾁﾖｳ5ﾁﾖｳﾒﾁﾖｳﾅｲｶｲ","","","","http://www.city.yokosuka.kanagawa.jp/2720/tyounaikai/1016.html","","139.686212326686","35.2622186301368","町内会・自治会マップ"
"ガーデンヒルズ吉井自治会","ｶﾞ-ﾃﾞﾝﾋﾙｽﾞﾖｼｲｼﾞﾁｶｲ","","","","http://www.city.yokosuka.kanagawa.jp/2720/tyounaikai/1647.html","","139.703698315048","35.2472198982852","町内会・自治会マップ"
"コモンシティ浦賀自治会","ｺﾓﾝｼﾃｲｳﾗｶﾞｼﾞﾁｶｲ","","","","http://www.city.yokosuka.kanagawa.jp/2720/tyounaikai/1642.html","","139.70729624095","35.2472673929841","町内会・自治会マップ"
"三春町５丁目南町内会","ﾐﾊﾙﾁﾖｳ5ﾁﾖｳﾒﾐﾅﾐﾁﾖｳﾅｲｶｲ","","","","http://www.city.yokosuka.kanagawa.jp/2720/tyounaikai/1017.html","","139.684182694759","35.2600711412903","町内会・自治会マップ"
"ルミネ浦賀自治会","ﾙﾐﾈｳﾗｶﾞｼﾞﾁｶｲ","","","","http://www.city.yokosuka.kanagawa.jp/2720/tyounaikai/1644.html","","139.718354501147","35.250849617871","町内会・自治会マップ"
"ライオンズヒルズ横須賀浦賀自治会","ﾗｲｵﾝｽﾞﾋﾙｽﾞﾖｺｽｶｳﾗｶﾞｼﾞﾁｶｲ","","","","http://www.city.yokosuka.kanagawa.jp/2720/tyounaikai/1646.html","","139.719928334853","35.2462878078864","町内会・自治会マップ"
"東浦賀一丁目町内会","ﾋｶﾞｼｳﾗｶﾞ1ﾁﾖｳﾒﾁﾖｳﾅｲｶｲ","","","","http://www.city.yokosuka.kanagawa.jp/2720/tyounaikai/1614.html","","139.719204887419","35.2476195302059","町内会・自治会マップ"
"三軒谷町内会","ｻﾝｹﾞﾝﾔﾁﾖｳﾅｲｶｲ","","","","http://www.city.yokosuka.kanagawa.jp/2720/tyounaikai/1637.html","","139.739563285011","35.2584604968689","町内会・自治会マップ"
"腰越町内会","ｺｼｺﾞｴﾁﾖｳﾅｲｶｲ","","","","","","139.737521130936","35.2514601856238","町内会・自治会マップ"
"東町内会","ﾋｶﾞｼﾁﾖｳﾅｲｶｲ","","","","http://www.city.yokosuka.kanagawa.jp/2720/tyounaikai/1634.html","","139.73593129314","35.249715117582","町内会・自治会マップ"
"宮原町内会","ﾐﾔﾊﾞﾗﾁﾖｳﾅｲｶｲ","","","","http://www.city.yokosuka.kanagawa.jp/2720/tyounaikai/1633.html","","139.734234190215","35.2496871313534","町内会・自治会マップ"
"北方町内会","ｷﾀｶﾀﾁﾖｳﾅｲｶｲ","","","","http://www.city.yokosuka.kanagawa.jp/2720/tyounaikai/1629.html","","139.734474657802","35.2487452061502","町内会・自治会マップ"
"脇方町内会","ﾜｷｶﾀﾁﾖｳﾅｲｶｲ","","","","http://www.city.yokosuka.kanagawa.jp/2720/tyounaikai/1630.html","","139.732769721937","35.2457664834922","町内会・自治会マップ"
"海上自衛隊馬堀宿舎自治会","ｶｲｼﾞﾖｳｼﾞｴｲﾀｲﾏﾎﾞﾘｼﾕｸｼﾔｼﾞﾁｶｲ","","","","http://www.city.yokosuka.kanagawa.jp/2720/tyounaikai/1528.html","","139.713780326351","35.2600493253412","町内会・自治会マップ"
"走水町内会","ﾊｼﾘﾐｽﾞﾁﾖｳﾅｲｶｲ","","","","http://www.city.yokosuka.kanagawa.jp/2720/tyounaikai/1527.html","","139.727848826741","35.261628511727","町内会・自治会マップ"
"馬堀町３・４丁目町内会","ﾏﾎﾞﾘﾁﾖｳ3.4ﾁﾖｳﾒﾁﾖｳﾅｲｶｲ","","","","http://www.city.yokosuka.kanagawa.jp/2720/tyounaikai/1509.html","","139.716904388631","35.2596742828974","町内会・自治会マップ"
"浦上台自治会","ｳﾗｶﾞﾐﾀﾞｲｼﾞﾁｶｲ","","","","http://www.city.yokosuka.kanagawa.jp/2720/tyounaikai/1620.html","","139.715795529354","35.256530480212","町内会・自治会マップ"
"浦賀京浜町内会","ｳﾗｶﾞｹｲﾋﾝﾁﾖｳﾅｲｶｲ","","","","http://www.city.yokosuka.kanagawa.jp/2720/tyounaikai/1619.html","","139.714726086543","35.2554106684217","町内会・自治会マップ"
"二葉一丁目町会","ﾌﾀﾊﾞ1ﾁﾖｳﾒﾁﾖｳｶｲ","","","","http://www.city.yokosuka.kanagawa.jp/2720/tyounaikai/1624.html","","139.721090596055","35.2533198325805","町内会・自治会マップ"
"コスモ浦賀自治会","ｺｽﾓｳﾗｶﾞｼﾞﾁｶｲ","","","","http://www.city.yokosuka.kanagawa.jp/2720/tyounaikai/1645.html","","139.724526092572","35.245746935581","町内会・自治会マップ"
"観音崎自治会","ｶﾝﾉﾝｻﾞｷｼﾞﾁｶｲ","","","","http://www.city.yokosuka.kanagawa.jp/2720/tyounaikai/1636.html","","139.733356062332","35.2538053324794","町内会・自治会マップ"
"小原台町内会","ｵﾊﾞﾗﾀﾞｲﾁﾖｳﾅｲｶｲ","","","","http://www.city.yokosuka.kanagawa.jp/2720/tyounaikai/1638.html","","139.728037191288","35.2540867298676","町内会・自治会マップ"
"鴨居みかん台自治会","ｶﾓｲﾐｶﾝﾀﾞｲｼﾞﾁｶｲ","","","","http://www.city.yokosuka.kanagawa.jp/2720/tyounaikai/1626.html","","139.727280505425","35.250448226802","町内会・自治会マップ"
"二葉２丁目町内会","ﾌﾀﾊﾞ2ﾁﾖｳﾒﾁﾖｳﾅｲｶｲ","","","","http://www.city.yokosuka.kanagawa.jp/2720/tyounaikai/1625.html","","139.721352466377","35.2487013922321","町内会・自治会マップ"
"浦賀北町内会","ｳﾗｶﾞｷﾀﾁﾖｳﾅｲｶｲ","","","","http://www.city.yokosuka.kanagawa.jp/2720/tyounaikai/1622.html","","139.716118616238","35.2549007001424","町内会・自治会マップ"
"中台町内会","ﾅｶﾀﾞｲﾁﾖｳﾅｲｶｲ","","","","http://www.city.yokosuka.kanagawa.jp/2720/tyounaikai/1627.html","","139.727607235177","35.2479304075151","町内会・自治会マップ"
"新町町内会","ｼﾝﾁﾖｳﾁﾖｳﾅｲｶｲ","","","","http://www.city.yokosuka.kanagawa.jp/2720/tyounaikai/1617.html","","139.722224214544","35.2440285900099","町内会・自治会マップ"
"田浦町１丁目自治会","ﾀｳﾗﾁﾖｳ1ﾁﾖｳﾒｼﾞﾁｶｲ","","","","http://www.city.yokosuka.kanagawa.jp/2720/tyounaikai/1209.html","","139.636634461537","35.2897075700808","町内会・自治会マップ"
"田浦町３丁目自治会","ﾀｳﾗﾁﾖｳ3ﾁﾖｳﾒｼﾞﾁｶｲ","","","","http://www.city.yokosuka.kanagawa.jp/2720/tyounaikai/1211.html","","139.630962688822","35.2907820403","町内会・自治会マップ"
"田浦大作町自治会","ﾀｳﾗｵｵｻｸﾁｮｳｼﾞﾁｶｲ","","","","http://www.city.yokosuka.kanagawa.jp/2720/tyounaikai/1214.html","","139.628789356935","35.286109991501","町内会・自治会マップ"
"長浦自治会","ﾅｶﾞｳﾗｼﾞﾁｶｲ","","","","http://www.city.yokosuka.kanagawa.jp/2720/tyounaikai/1216.html","","139.639592690696","35.2892942937537","町内会・自治会マップ"
"湘南港が丘自治会","ｼﾖｳﾅﾝﾐﾅﾄｶﾞｵｶｼﾞﾁｶｲ","","","","http://www.city.yokosuka.kanagawa.jp/2720/tyounaikai/1218.html","","139.628470424563","35.2947275386477","町内会・自治会マップ"
"田浦町四・五丁目自治会","ﾀｳﾗﾁﾖｳ4.5ﾁﾖｳﾒｼﾞﾁｶｲ","","","","http://www.city.yokosuka.kanagawa.jp/2720/tyounaikai/1212.html","","139.628557170203","35.293018227531","町内会・自治会マップ"
"田浦町二・泉自治会","ﾀｳﾗﾁﾖｳﾆｾﾝｼﾞﾁｶｲ","","","","http://www.city.yokosuka.kanagawa.jp/2720/tyounaikai/1210.html","","139.633030644068","35.2871175846093","町内会・自治会マップ"
"ポートバレーヌ団地自治会","ﾎﾟ-ﾄﾊﾞﾚ-ﾇﾀﾞﾝﾁｼﾞﾁｶｲ","","","","http://www.city.yokosuka.kanagawa.jp/2720/tyounaikai/1310.html","","139.65421406163","35.2840398921403","町内会・自治会マップ"
"天空の街自治会","ﾃﾝｸｳﾉﾏﾁｼﾞﾁｶｲ","","","","http://www.city.yokosuka.kanagawa.jp/2720/tyounaikai/1311.html","","139.652457708509","35.2842502887309","町内会・自治会マップ"
"横須賀汐入ハイム自治会","ﾖｺｽｶｼｵｲﾘﾊｲﾑｼﾞﾁｶｲ","","","","http://www.city.yokosuka.kanagawa.jp/2720/tyounaikai/1057.html","","139.663667014523","35.2828257282849","町内会・自治会マップ"
"中央ハイツ自治会","ﾁﾕｳｵｳﾊｲﾂｼﾞﾁｶｲ","","","","http://www.city.yokosuka.kanagawa.jp/2720/tyounaikai/1065.html","","139.675593646313","35.2808748586871","町内会・自治会マップ"
"安浦第１町会","ﾔｽｳﾗﾀﾞｲｲﾁﾁｮｳｶｲ","","","","http://www.city.yokosuka.kanagawa.jp/2720/tyounaikai/1007.html","","139.676913036213","35.2740618645255","町内会・自治会マップ"
"坂本町４丁目町内会","ｻｶﾓﾄﾁﾖｳ4ﾁﾖｳﾒﾁﾖｳﾅｲｶｲ","","","","http://www.city.yokosuka.kanagawa.jp/2720/tyounaikai/1052.html","","139.653750035726","35.27312534347","町内会・自治会マップ"
"本町町会","ﾎﾝﾁﾖｳﾁﾖｳｶｲ","","","","http://www.city.yokosuka.kanagawa.jp/2720/tyounaikai/1002.html","","139.664482005993","35.2820978230578","町内会・自治会マップ"
"汐入町１丁目町内会","ｼｵｲﾘﾁﾖｳ1ﾁﾖｳﾒﾁﾖｳﾅｲｶｲ","","","","http://www.city.yokosuka.kanagawa.jp/2720/tyounaikai/1041.html","","139.658070685495","35.2832251308914","町内会・自治会マップ"
"東逸見第一町内会","ﾋｶﾞｼﾍﾐﾀﾞｲ1ﾁﾖｳﾅｲｶｲ","","","","http://www.city.yokosuka.kanagawa.jp/2720/tyounaikai/1301.html","","139.654264344654","35.2826234986488","町内会・自治会マップ"
"東逸見第３町内会","ﾋｶﾞｼﾍﾐﾀﾞｲ3ﾁﾖｳﾅｲｶｲ","","","","http://www.city.yokosuka.kanagawa.jp/2720/tyounaikai/1303.html","","139.652059416089","35.2773804810042","町内会・自治会マップ"
"汐入町５丁目２区町内会","ｼｵｲﾘﾁﾖｳ5ﾁﾖｳﾒ2ｸﾁﾖｳﾅｲｶｲ","","","","http://www.city.yokosuka.kanagawa.jp/2720/tyounaikai/1047.html","","139.656708435151","35.2803213076107","町内会・自治会マップ"
"汐入町３丁目町内会","ｼｵｲﾘﾁﾖｳ3ﾁﾖｳﾒﾁﾖｳﾅｲｶｲ","","","","http://www.city.yokosuka.kanagawa.jp/2720/tyounaikai/1044.html","","139.663525978962","35.2766931735581","町内会・自治会マップ"
"プランヴェール横須賀汐入自治会","ﾌﾟﾗﾝｳﾞｴ-ﾙﾖｺｽｶｼｵｲﾘｼﾞﾁｶｲ","","","","http://www.city.yokosuka.kanagawa.jp/2720/tyounaikai/1056.html","","139.658932201857","35.2739936757909","町内会・自治会マップ"
"東逸見第２町内会","ﾋｶﾞｼﾍﾐﾀﾞｲ2ﾁﾖｳﾅｲｶｲ","","","","http://www.city.yokosuka.kanagawa.jp/2720/tyounaikai/1302.html","","139.651896180221","35.2808129005294","町内会・自治会マップ"
"坂本町２丁目町内会","ｻｶﾓﾄﾁﾖｳ2ﾁﾖｳﾒﾁﾖｳﾅｲｶｲ","","","","http://www.city.yokosuka.kanagawa.jp/2720/tyounaikai/1049.html","","139.655248234038","35.2746234307015","町内会・自治会マップ"
"汐入宮元町内会","ｼｵｲﾘﾐﾔﾓﾄﾁﾖｳﾅｲｶｲ","","","","http://www.city.yokosuka.kanagawa.jp/2720/tyounaikai/1045.html","","139.658022711258","35.2768708088342","町内会・自治会マップ"
"汐留町内会","ｼｵﾄﾞﾒﾁﾖｳﾅｲｶｲ","","","","http://www.city.yokosuka.kanagawa.jp/2720/tyounaikai/1042.html","","139.663653360792","35.2792888830547","町内会・自治会マップ"
"深田大門町内会","ﾌｶﾀﾞﾀﾞｲﾓﾝﾁﾖｳﾅｲｶｲ","","","","http://www.city.yokosuka.kanagawa.jp/2720/tyounaikai/1025.html","","139.671887421643","35.276240191051","町内会・自治会マップ"
"台深田町内会","ﾀﾞｲﾌｶﾀﾞﾁﾖｳﾅｲｶｲ","","","","http://www.city.yokosuka.kanagawa.jp/2720/tyounaikai/1026.html","","139.672421167775","35.272937474072","町内会・自治会マップ"
"上町深田町内会","ｳﾜﾏﾁﾌｶﾀﾞﾁﾖｳﾅｲｶｲ","","","","http://www.city.yokosuka.kanagawa.jp/2720/tyounaikai/1024.html","","139.66939618871","35.2754567194105","町内会・自治会マップ"
"南中里町内会","ﾐﾅﾐﾅｶｻﾞﾄﾁﾖｳﾅｲｶｲ","","","","http://www.city.yokosuka.kanagawa.jp/2720/tyounaikai/1022.html","","139.665913855449","35.2727437368611","町内会・自治会マップ"
"米が浜町会","ﾖﾈｶﾞﾊﾏﾁﾖｳｶｲ","","","","http://www.city.yokosuka.kanagawa.jp/2720/tyounaikai/1005.html","","139.675058750612","35.276477477608","町内会・自治会マップ"
"若松町会","ﾜｶﾏﾂﾁﾖｳｶｲ","","","","http://www.city.yokosuka.kanagawa.jp/2720/tyounaikai/1001.html","","139.671254839409","35.2789680656311","町内会・自治会マップ"
"大滝町会","ｵｵﾀｷﾁﾖｳｶｲ","","","","http://www.city.yokosuka.kanagawa.jp/2720/tyounaikai/1003.html","","139.667814038821","35.2810252759066","町内会・自治会マップ"
"小川町町内会","ｵｶﾞﾜﾁﾖｳﾁﾖｳﾅｲｶｲ","","","","http://www.city.yokosuka.kanagawa.jp/2720/tyounaikai/1004.html","","139.673405537134","35.2835363966638","町内会・自治会マップ"
"汐入町５丁目１区町内会","ｼｵｲﾘﾁﾖｳ5ﾁﾖｳﾒ1ｸﾁﾖｳﾅｲｶｲ","","","","http://www.city.yokosuka.kanagawa.jp/2720/tyounaikai/1046.html","","139.658162604684","35.278904164725","町内会・自治会マップ"
"汐入町２丁目２区町内会","ｼｵｲﾘﾁﾖｳ2ﾁﾖｳﾒ2ｸﾁﾖｳﾅｲｶｲ","","","","http://www.city.yokosuka.kanagawa.jp/2720/tyounaikai/1043.html","","139.660273544146","35.2807599481747","町内会・自治会マップ"
"西逸見第１町内会","ﾆｼﾍﾐﾀﾞｲ1ﾁﾖｳﾅｲｶｲ","","","","http://www.city.yokosuka.kanagawa.jp/2720/tyounaikai/1305.html","","139.650192661226","35.2842867844256","町内会・自治会マップ"
"東中里町内会","ﾋｶﾞｼﾅｶｻﾞﾄﾁﾖｳﾅｲｶｲ","","","","http://www.city.yokosuka.kanagawa.jp/2720/tyounaikai/1019.html","","139.668981909791","35.2730055995734","町内会・自治会マップ"
"中里町内会","ﾅｶｻﾞﾄﾁﾖｳﾅｲｶｲ","","","","http://www.city.yokosuka.kanagawa.jp/2720/tyounaikai/1018.html","","139.667617588296","35.2767370456506","町内会・自治会マップ"
"よこすか海辺ﾆｭｰﾀｳﾝかがやきの街自治会","ﾖｺｽｶｳﾐﾍﾞﾆﾕ-ﾀｳﾝｶｶﾞﾔｷﾉﾏﾁｼﾞﾁｶｲ","","","","http://www.city.yokosuka.kanagawa.jp/2720/tyounaikai/1058.html","","139.683187415364","35.2728295103066","町内会・自治会マップ"
"よこすか海辺ﾆｭｰﾀｳﾝｿﾌｨｱｼﾝｼﾃｨ自治会","ﾖｺｽｶｳﾐﾍﾞﾆｭｰﾀｳﾝｿﾌｨｱｼﾝｼﾃｨｼﾞﾁｶｲ","","","","","","139.683795224893","35.2717489510713","町内会・自治会マップ"
"シーパークス自治会","ｼ-ﾊﾟ-ｸｽｼﾞﾁｶｲ","","","","http://www.city.yokosuka.kanagawa.jp/2720/tyounaikai/1062.html","","139.68145279866","35.2718711039257","町内会・自治会マップ"
"シーサイドスクエア自治会","ｼｰｻｲﾄﾞｽｸｴｱｼﾞﾁｶｲ","","","","","","139.682217896896","35.2723694279083","町内会・自治会マップ"
"よこすか海辺ﾆｭｰﾀｳﾝｿﾌｨｱｽﾃｲｼｱ自治会","ﾖｺｽｶｳﾐﾍﾞﾆﾕ-ﾀｳﾝｿﾌｲｱｽﾃｲｼｱｼﾞﾁｶｲ","","","","http://www.city.yokosuka.kanagawa.jp/2720/tyounaikai/1060.html","","139.682738587174","35.2711810874659","町内会・自治会マップ"
"湘南鷹取台マンション自治会","ｼﾖｳﾅﾝﾀｶﾄﾘﾀﾞｲﾏﾝｼﾖﾝｼﾞﾁｶｲ","","","","http://www.city.yokosuka.kanagawa.jp/2720/tyounaikai/1129.html","","139.611630551225","35.3126743258559","町内会・自治会マップ"
"追浜会館ビル自治会","ｵﾂﾊﾟﾏｶｲｶﾝﾋﾞﾙｼﾞﾁｶｲ","","","","http://www.city.yokosuka.kanagawa.jp/2720/tyounaikai/1142.html","","139.632887018079","35.3170325569768","町内会・自治会マップ"
"シティ追浜Ｌ－ウィング自治会","ｼﾃｲｵﾂﾊﾟﾏｴﾙｳｲﾝｸﾞｼﾞﾁｶｲ","","","","http://www.city.yokosuka.kanagawa.jp/2720/tyounaikai/1143.html","","139.633200704095","35.317805642194","町内会・自治会マップ"
"ハイツ追浜自治会","ﾊｲﾂｵﾂﾊﾟﾏｼﾞﾁｶｲ","","","","http://www.city.yokosuka.kanagawa.jp/2720/tyounaikai/1138.html","","139.631152614727","35.317173447855","町内会・自治会マップ"
"若葉自治会","ﾜｶﾊﾞｼﾞﾁｶｲ","","","","http://www.city.yokosuka.kanagawa.jp/2720/tyounaikai/1104.html","","139.628874401143","35.3176464698807","町内会・自治会マップ"
"ダイアパレスウィザス追浜自治会","ﾀﾞｲｱﾊﾟﾚｽｳｲｻﾞｽｵﾂﾊﾟﾏｼﾞﾁｶｲ","","","","","","139.631428126597","35.3095360435882","町内会・自治会マップ"
"県営追浜東団地自治会","ｹﾝｴｲｵﾂﾊﾟﾏﾋｶﾞｼﾀﾞﾝﾁｼﾞﾁｶｲ","","","","http://www.city.yokosuka.kanagawa.jp/2720/tyounaikai/1130.html","","139.629872311899","35.3089541309993","町内会・自治会マップ"
"ビューパレス浜見台自治会","ﾋﾞﾕ-ﾊﾟﾚｽﾊﾏﾐﾀﾞｲｼﾞﾁｶｲ","","","","http://www.city.yokosuka.kanagawa.jp/2720/tyounaikai/1136.html","","139.628794994533","35.3083848251974","町内会・自治会マップ"
"追浜南町協力会","ｵﾂﾊﾟﾏﾐﾅﾐﾁﾖｳｷﾖｳﾘﾖｸｶｲ","","","","http://www.city.yokosuka.kanagawa.jp/2720/tyounaikai/1122.html","","139.621494455546","35.3099324150015","町内会・自治会マップ"
"浜見台２丁目自治会","ﾊﾏﾐﾀﾞｲ2ﾁﾖｳﾒｼﾞﾁｶｲ","","","","","","139.629398065286","35.3069868657348","町内会・自治会マップ"
"湘南鷹取ミセスカーム自治会","ｼﾖｳﾅﾝﾀｶﾄﾘﾐｾｽｶ-ﾑｼﾞﾁｶｲ","","","","http://www.city.yokosuka.kanagawa.jp/2720/tyounaikai/1139.html","","139.618230288408","35.314102622711","町内会・自治会マップ"
"鷹取親和会","ﾀｶﾄﾘｼﾝﾜｶｲ","","","","http://www.city.yokosuka.kanagawa.jp/2720/tyounaikai/1102.html","","139.617863214996","35.3134709717505","町内会・自治会マップ"
"湘南鷹取１丁目自治会","ｼﾖｳﾅﾝﾀｶﾄﾘ1ﾁﾖｳﾒｼﾞﾁｶｲ","","","","http://www.city.yokosuka.kanagawa.jp/2720/tyounaikai/1123.html","","139.619344607689","35.3110324346958","町内会・自治会マップ"
"湘南鷹取２丁目自治会","ｼﾖｳﾅﾝﾀｶﾄﾘ2ﾁﾖｳﾒｼﾞﾁｶｲ","","","","http://www.city.yokosuka.kanagawa.jp/2720/tyounaikai/1124.html","","139.620675591908","35.3063009882933","町内会・自治会マップ"
"湘南鷹取三丁目自治会","ｼﾖｳﾅﾝﾀｶﾄﾘ3ﾁﾖｳﾒｼﾞﾁｶｲ","","","","http://www.city.yokosuka.kanagawa.jp/2720/tyounaikai/1125.html","","139.617106609373","35.3046452309846","町内会・自治会マップ"
"追浜大通り会","ｵﾂﾊﾟﾏｵｵﾄﾞｵﾘｶｲ","","","","http://www.city.yokosuka.kanagawa.jp/2720/tyounaikai/1118.html","","139.62537229149","35.3142753009046","町内会・自治会マップ"
"追浜町２丁目あけぼの会","ｵﾂﾊﾟﾏﾁﾖｳﾆﾁﾖｳﾒｱｹﾎﾞﾉｶｲ","","","","http://www.city.yokosuka.kanagawa.jp/2720/tyounaikai/1116.html","","139.625173480212","35.3106569520789","町内会・自治会マップ"
"クリオ湘南追浜サニークレスト自治会","ｸﾘｵｼﾖｳﾅﾝｵﾂﾊﾟﾏｻﾆ-ｸﾚｽﾄｼﾞﾁｶｲ","","","","http://www.city.yokosuka.kanagawa.jp/2720/tyounaikai/1137.html","","139.62500601413","35.30949067105","町内会・自治会マップ"
"追浜町１丁目親和会","ｵﾂﾊﾟﾏﾁﾖｳ1ﾁﾖｳﾒｼﾝﾜｶｲ","","","","http://www.city.yokosuka.kanagawa.jp/2720/tyounaikai/1114.html","","139.625304838151","35.3082316555037","町内会・自治会マップ"
"南郷親和会","ﾅﾝｺﾞｳｼﾝﾜｶｲ","","","","http://www.city.yokosuka.kanagawa.jp/2720/tyounaikai/1204.html","","139.623052216038","35.3029831067355","町内会・自治会マップ"
"ガーデン船越町内会","ｶﾞ-ﾃﾞﾝﾌﾅｺｼﾁﾖｳﾅｲｶｲ","","","","http://www.city.yokosuka.kanagawa.jp/2720/tyounaikai/1217.html","","139.629149587626","35.3026142239541","町内会・自治会マップ"
"浜見台２丁目自治会","ﾊﾏﾐﾀﾞｲ2ﾁﾖｳﾒｼﾞﾁｶｲ","","","","","","139.63020645064","35.3080266789473","町内会・自治会マップ"
"追浜本町２丁目親和会","ｵﾂﾊﾟﾏﾎﾝﾁﾖｳ2ﾁﾖｳﾒｼﾝﾜｶｲ","","","","http://www.city.yokosuka.kanagawa.jp/2720/tyounaikai/1105.html","","139.631453975902","35.3233621820545","町内会・自治会マップ"
"築島町内会","ﾂｷｼﾏﾁﾖｳﾅｲｶｲ","","","","http://www.city.yokosuka.kanagawa.jp/2720/tyounaikai/1119.html","","139.626738451114","35.315752278601","町内会・自治会マップ"
"追浜３丁目自治会","ｵﾂﾊﾟﾏ3ﾁﾖｳﾒｼﾞﾁｶｲ","","","","http://www.city.yokosuka.kanagawa.jp/2720/tyounaikai/1120.html","","139.627382866801","35.3153022132231","町内会・自治会マップ"
"駒寄町内会","ｺﾏﾖｾﾁﾖｳﾅｲｶｲ","","","","http://www.city.yokosuka.kanagawa.jp/2720/tyounaikai/1205.html","","139.627911852305","35.3027947067198","町内会・自治会マップ"
"皆ケ作町内会","ｶｲｶﾞｻｸﾁﾖｳﾅｲｶｲ","","","","http://www.city.yokosuka.kanagawa.jp/2720/tyounaikai/1206.html","","139.627954333274","35.3049146178629","町内会・自治会マップ"
"船越町８丁目町内会","ﾌﾅｺｼﾁﾖｳ8ﾁﾖｳﾒﾁﾖｳﾅｲｶｲ","","","","http://www.city.yokosuka.kanagawa.jp/2720/tyounaikai/1208.html","","139.63199720897","35.3060386234317","町内会・自治会マップ"
"追浜南町正明会","ｵﾂﾊﾟﾏﾐﾅﾐﾁﾖｳｼﾖｳﾒｲｶｲ","","","","http://www.city.yokosuka.kanagawa.jp/2720/tyounaikai/1121.html","","139.62397196948","35.3137002530982","町内会・自治会マップ"
"日向自治会","ﾋﾅﾀｼﾞﾁｶｲ","","","","","","139.637857428326","35.3051404235497","町内会・自治会マップ"
"梅田町内会","ｳﾒﾀﾞﾁｮｳﾅｲｶｲ","","","","http://www.city.yokosuka.kanagawa.jp/2720/tyounaikai/1207.html","","139.632044127086","35.3034458892587","町内会・自治会マップ"
"船越町１丁目町内会","ﾌﾅｺｼﾁﾖｳ1ﾁﾖｳﾒﾁﾖｳﾅｲｶｲ","","","","http://www.city.yokosuka.kanagawa.jp/2720/tyounaikai/1201.html","","139.628885091831","35.2994261715069","町内会・自治会マップ"
"追浜本町２丁目天神アパート自治会","ｵﾂﾊﾟﾏﾎﾝﾁﾖｳ2ﾁﾖｳﾒﾃﾝｼﾞﾝｱﾊﾟ-ﾄｼﾞﾁｶｲ","","","","http://www.city.yokosuka.kanagawa.jp/2720/tyounaikai/1140.html","","139.630865709247","35.3220911735227","町内会・自治会マップ"
"追浜本町２丁目親和会","ｵﾂﾊﾟﾏﾎﾝﾁﾖｳ2ﾁﾖｳﾒｼﾝﾜｶｲ","","","","http://www.city.yokosuka.kanagawa.jp/2720/tyounaikai/1105.html","","139.632069224256","35.3214650784547","町内会・自治会マップ"
"追浜東町アパート自治会","ｵﾂﾊﾟﾏﾋｶﾞｼﾁﾖｳｱﾊﾟ-ﾄｼﾞﾁｶｲ","","","","http://www.city.yokosuka.kanagawa.jp/2720/tyounaikai/1111.html","","139.631913273167","35.3164050355804","町内会・自治会マップ"
"プレディオ追浜自治会","ﾌﾟﾚﾃﾞｲｵｵﾂﾊﾟﾏｼﾞﾁｶｲ","","","","http://www.city.yokosuka.kanagawa.jp/2720/tyounaikai/1135.html","","139.629290323731","35.3086781746942","町内会・自治会マップ"
"追浜本町一丁目町内会","ｵﾂﾊﾟﾏﾎﾝﾁﾖｳ1ﾁﾖｳﾒﾁﾖｳﾅｲｶｲ","","","","http://www.city.yokosuka.kanagawa.jp/2720/tyounaikai/1103.html","","139.626377246874","35.3187126696439","町内会・自治会マップ"
"追浜本町２丁目親和会","ｵﾂﾊﾟﾏﾎﾝﾁﾖｳ2ﾁﾖｳﾒｼﾝﾜｶｲ","","","","http://www.city.yokosuka.kanagawa.jp/2720/tyounaikai/1105.html","","139.630137316435","35.3204585005207","町内会・自治会マップ"
"榎戸町内会","ｴﾉｷﾄﾞﾁﾖｳﾅｲｶｲ","","","","http://www.city.yokosuka.kanagawa.jp/2720/tyounaikai/1107.html","","139.635074551221","35.3091779352793","町内会・自治会マップ"
"深浦町内会","ﾌｶｳﾗﾁﾖｳﾅｲｶｲ","","","","http://www.city.yokosuka.kanagawa.jp/2720/tyounaikai/1108.html","","139.635160522172","35.3136714602689","町内会・自治会マップ"
"追浜２丁目平和会","ｵﾂﾊﾟﾏ2ﾁﾖｳﾒﾍｲﾜｶｲ","","","","http://www.city.yokosuka.kanagawa.jp/2720/tyounaikai/1117.html","","139.627078404276","35.3122138668495","町内会・自治会マップ"
"浜見台１丁目自治会","ﾊﾏﾐﾀﾞｲ1ﾁﾖｳﾒｼﾞﾁｶｲ","","","","http://www.city.yokosuka.kanagawa.jp/2720/tyounaikai/1112.html","","139.626951364435","35.309547228034","町内会・自治会マップ"
"追浜東町東会","ｵﾂﾊﾟﾏﾋｶﾞｼﾁﾖｳｱｽﾞﾏｶｲ","","","","http://www.city.yokosuka.kanagawa.jp/2720/tyounaikai/1109.html","","139.631002207857","35.3121770991357","町内会・自治会マップ"
"ザ・パークハウス追浜自治会","ｻﾞ･ﾊﾟ-ｸﾊｳｽｵﾂﾊﾟﾏｼﾞﾁｶｲ","","","","","","139.629131165885","35.3109113205201","町内会・自治会マップ"
"鷹取町内会","ﾀｶﾄﾘﾁﾖｳﾅｲｶｲ","","","","http://www.city.yokosuka.kanagawa.jp/2720/tyounaikai/1101.html","","139.620507419094","35.3152860431449","町内会・自治会マップ"
"追浜町２丁目会","ｵﾂﾊﾟﾏﾁﾖｳ2ﾁﾖｳﾒｶｲ","","","","http://www.city.yokosuka.kanagawa.jp/2720/tyounaikai/1115.html","","139.625493588791","35.3119661442044","町内会・自治会マップ"
"追浜本町２丁目親和会","ｵﾂﾊﾟﾏﾎﾝﾁﾖｳ2ﾁﾖｳﾒｼﾝﾜｶｲ","","","","http://www.city.yokosuka.kanagawa.jp/2720/tyounaikai/1105.html","","139.631304582147","35.3242804379011","町内会・自治会マップ"
"サンコリーヌタワー横須賀中央駅前自治会","ｻﾝｺﾘｰﾇﾀﾜｰﾖｺｽｶﾁﾕｳｵｳｼﾞﾁｶｲ","","","","https://www.city.yokosuka.kanagawa.jp/2720/tyounaikai/1067.html","","139.672098469191","35.2779083841185","町内会・自治会マップ"
"ネアポリス湘南自治会","ﾈｱﾎﾟﾘｽｼﾖｳﾅﾝｼﾞﾁｶｲ","","","","http://www.city.yokosuka.kanagawa.jp/2720/tyounaikai/1950.html","","139.643796046446","35.2211103484127","町内会・自治会マップ"
